FID,survey_id,country,area,ecoregion,realm,location,site_code,site_name,latitude,longitude,survey_date,depth,program,visibility,hour,survey_latitude,survey_longitude,method,block,phylum,class,order,family,species_name,reporting_name,size_class,total,biomass,geom
ep_m0_off_transect_sighting_public_data.fid--5e32c652_1963b673aa0_5541,2000902,Australia,New South Wales,Cape Howe,Temperate Australasia,Jervis Bay,JBMP37,Murrays Reef Jetty,-35.13,150.75,2010-02-24,4,RLS,,,,,0,,Chordata,Reptilia,Testudines,Cheloniidae,Eretmochelys imbricata,Eretmochelys imbricata,0,1,,POINT (150.75 -35.130001068115234)
ep_m0_off_transect_sighting_public_data.fid--5e32c652_1963b673aa0_5542,2001144,Australia,New South Wales,Tweed-Moreton,Temperate Australasia,Solitary Islands,SI20,Unnamed Reef Mooring NW Solitary Is,-30.02,153.27,2008-06-07,15.1,RLS,,,,,0,,Chordata,Reptilia,Testudines,Cheloniidae,Chelonia mydas,Chelonia mydas,0,1,,POINT (153.27000427246094 -30.020000457763672)
ep_m0_off_transect_sighting_public_data.fid--5e32c652_1963b673aa0_5543,2001482,Australia,New South Wales,Cape Howe,Temperate Australasia,Jervis Bay,JBMP-S14,GREEN POINT (GREEN ISLAND),-35.02,150.76,2010-03-29,5.1,RLS,,,,,0,,Chordata,Reptilia,Testudines,Cheloniidae,Chelonia mydas,Chelonia mydas,0,1,,POINT (150.75999450683594 -35.02000045776367)
ep_m0_off_transect_sighting_public_data.fid--5e32c652_1963b673aa0_5544,2001712,Australia,New South Wales,Lord Howe and Norfolk Islands,Central Indo-Pacific,Lord Howe Island,LHI35,Middle Beach,-31.52,159.08,2010-02-18,11.5,RLS,,,,,0,,Chordata,Reptilia,Testudines,Cheloniidae,Chelonia mydas,Chelonia mydas,0,1,,POINT (159.0800018310547 -31.520000457763672)
ep_m0_off_transect_sighting_public_data.fid--5e32c652_1963b673aa0_5545,2002701,Australia,New South Wales,Cape Howe,Temperate Australasia,Jervis Bay,JBMP-S17,Murrays Reef,-35.12,150.75,2011-04-16,4,RLS,5,,,,0,,Chordata,Reptilia,Testudines,Cheloniidae,Chelonia mydas,Chelonia mydas,0,1,,POINT (150.75 -35.119998931884766)
ep_m0_off_transect_sighting_public_data.fid--5e32c652_1963b673aa0_5546,2002720,Australia,New South Wales,Cape Howe,Temperate Australasia,Jervis Bay,JBMP-S26,Outer Tubes,-35.09,150.8,2011-04-18,5.3,RLS,15,,-35.09,150.8,0,,Chordata,Reptilia,Testudines,Cheloniidae,Chelonia mydas,Chelonia mydas,0,1,,POINT (150.8 -35.09)
ep_m0_off_transect_sighting_public_data.fid--5e32c652_1963b673aa0_5547,2002802,Australia,New South Wales,Cape Howe,Temperate Australasia,Batemans,BMP22,Montague Is NW shallow bay,-36.24,150.22,2011-05-20,12.1,RLS,15,,,,0,,Chordata,Reptilia,Testudines,Cheloniidae,Cheloniidae spp.,Cheloniid spp.,0,1,,POINT (150.22000122070312 -36.2400016784668)
ep_m0_off_transect_sighting_public_data.fid--5e32c652_1963b673aa0_5548,4000699,Australia,Queensland,Central and Southern Great Barrier Reef,Central Indo-Pacific,GBR - Central,GBR206,Whale Bommie Milln Reef,-16.78,146.27,2010-07-04,6.5,RLS,,,,,0,,Chordata,Reptilia,Testudines,Cheloniidae,Chelonia mydas,Chelonia mydas,0,1,,POINT (146.27000427246094 -16.780000686645508)
ep_m0_off_transect_sighting_public_data.fid--5e32c652_1963b673aa0_5549,4000706,Australia,Queensland,Central and Southern Great Barrier Reef,Central Indo-Pacific,GBR - Central,GBR209,Traceys Bommie Flynn Reef,-16.73,146.27,2010-07-05,8,RLS,,,,,0,,Chordata,Reptilia,Testudines,Cheloniidae,Chelonia mydas,Chelonia mydas,0,1,,POINT (146.27000427246094 -16.729999542236328)
ep_m0_off_transect_sighting_public_data.fid--5e32c652_1963b673aa0_554a,6002161,Australia,Western Australia,Bonaparte Coast,Central Indo-Pacific,Kimberley,WA85,Bardi Hole2  Cape Leveque,-16.43,123.07,2010-06-11,4.5,RLS,,,,,0,,Chordata,Reptilia,Testudines,Cheloniidae,Chelonia mydas,Chelonia mydas,0,1,,POINT (123.06999969482422 -16.43000030517578)
ep_m0_off_transect_sighting_public_data.fid--5e32c652_1963b673aa0_554b,6002336,Australia,Western Australia,Leeuwin,Temperate Australasia,Rottnest Island,RI14,Parker Point,-32.03,115.53,2008-07-27,9.5,RLS,,,,,0,,Chordata,Reptilia,Testudines,Cheloniidae,Chelonia mydas,Chelonia mydas,0,1,,POINT (115.52999877929688 -32.029998779296875)
ep_m0_off_transect_sighting_public_data.fid--5e32c652_1963b673aa0_554c,912340227,Australia,New South Wales,Manning-Hawkesbury,Temperate Australasia,Sydney,SYD50,Shelly Beach,-33.8,151.3,2011-11-27,4,RLS,5,9:00:00,,,0,,Chordata,Reptilia,Testudines,Cheloniidae,Chelonia mydas,Chelonia mydas,0,1,,POINT (151.3000030517578 -33.79999923706055)
ep_m0_off_transect_sighting_public_data.fid--5e32c652_1963b673aa0_554d,912340257,Australia,New South Wales,Manning-Hawkesbury,Temperate Australasia,NSW - Central,NSW13,Terrigal Haven,-33.45,151.45,2012-03-10,8,RLS,5,10:00:00,,,0,,Chordata,Reptilia,Testudines,Cheloniidae,Chelonia mydas,Chelonia mydas,0,1,,POINT (151.4499969482422 -33.45000076293945)
ep_m0_off_transect_sighting_public_data.fid--5e32c652_1963b673aa0_554e,912340290,Australia,New South Wales,Tweed-Moreton,Temperate Australasia,Solitary Islands,SI19,SW Solitary,-30.16,153.23,2011-08-10,14,RLS,10,10:00:00,,,0,,Chordata,Reptilia,Testudines,Cheloniidae,Chelonia mydas,Chelonia mydas,0,1,,POINT (153.22999572753906 -30.15999984741211)
ep_m0_off_transect_sighting_public_data.fid--5e32c652_1963b673aa0_554f,912340290,Australia,New South Wales,Tweed-Moreton,Temperate Australasia,Solitary Islands,SI19,SW Solitary,-30.16,153.23,2011-08-10,14,RLS,10,10:00:00,,,0,,Chordata,Reptilia,Testudines,Cheloniidae,Chelonia mydas,Chelonia mydas,75,1,,POINT (153.22999572753906 -30.15999984741211)
ep_m0_off_transect_sighting_public_data.fid--5e32c652_1963b673aa0_5550,912340298,Australia,New South Wales,Manning-Hawkesbury,Temperate Australasia,NSW - Central,NSW13,Terrigal Haven,-33.45,151.45,2012-03-10,7,RLS,5,10:00:00,,,0,,Chordata,Reptilia,Testudines,Cheloniidae,Chelonia mydas,Chelonia mydas,62.5,1,,POINT (151.4499969482422 -33.45000076293945)
ep_m0_off_transect_sighting_public_data.fid--5e32c652_1963b673aa0_5551,912340300,Australia,New South Wales,Manning-Hawkesbury,Temperate Australasia,Port Stephens,PS17,Fly Point Nelson Bay,-32.71,152.15,2012-03-11,7,RLS,5,11:00:00,-32.71,152.15,0,,Chordata,Reptilia,Testudines,Cheloniidae,Chelonia mydas,Chelonia mydas,100,1,,POINT (152.15 -32.71)
ep_m0_off_transect_sighting_public_data.fid--5e32c652_1963b673aa0_5552,912340311,Australia,New South Wales,Manning-Hawkesbury,Temperate Australasia,Port Stephens,PS4,Governers Wharf (Fingal Island),-32.74,152.19,2012-02-12,6,RLS,6,8:00:00,,,0,,Chordata,Reptilia,Testudines,Cheloniidae,Chelonia mydas,Chelonia mydas,62.5,1,,POINT (152.19000244140625 -32.7400016784668)
ep_m0_off_transect_sighting_public_data.fid--5e32c652_1963b673aa0_5553,912340317,Australia,New South Wales,Tweed-Moreton,Temperate Australasia,Solitary Islands,SI4,North Boulder Wall S Solitary Is,-30.2,153.27,2012-03-31,13,RLS,10,9:00:00,,,0,,Chordata,Reptilia,Testudines,Cheloniidae,Chelonia mydas,Chelonia mydas,75,1,,POINT (153.27000427246094 -30.200000762939453)
ep_m0_off_transect_sighting_public_data.fid--5e32c652_1963b673aa0_5554,912340536,Australia,New South Wales,Lord Howe and Norfolk Islands,Central Indo-Pacific,Lord Howe Island,LHI17,North Head inside,-31.52,159.04,2012-02-28,3.1,RLS,30,11:00:00,,,0,,Chordata,Reptilia,Testudines,Cheloniidae,Chelonia mydas,Chelonia mydas,62.5,1,,POINT (159.0399932861328 -31.520000457763672)
ep_m0_off_transect_sighting_public_data.fid--5e32c652_1963b673aa0_5555,912340607,Australia,Western Australia,Exmouth to Broome,Central Indo-Pacific,Exmouth,NMP-BF2,Bundegi SZ North,-21.85,114.17,2012-08-01,4.7,RLS,20,11:00:00,,,0,,Chordata,Reptilia,Squamata,Elapidae,Aipysurus laevis,Aipysurus laevis,175,1,,POINT (114.16999816894531 -21.850000381469727)
ep_m0_off_transect_sighting_public_data.fid--5e32c652_1963b673aa0_5556,912342395,Australia,Other Territories,Lord Howe and Norfolk Islands,Central Indo-Pacific,Norfolk Island,NI7,Shark Point Phillip Island,-29.12,167.94,2013-01-10,14,RLS,35,17:00:00,,,0,,Chordata,Reptilia,Squamata,Elapidae,Laticauda colubrina,Laticauda colubrina,35,1,,POINT (167.94000244140625 -29.1200008392334)
ep_m0_off_transect_sighting_public_data.fid--5e32c652_1963b673aa0_5557,912342456,Australia,Other Territories,Lord Howe and Norfolk Islands,Central Indo-Pacific,Elizabeth and Middleton Reefs,EMR27,Elizabeth Anchorage East,-29.92,159.06,2013-01-18,5,RLS,18,8:00:00,,,0,,Chordata,Reptilia,Testudines,Cheloniidae,Chelonia mydas,Chelonia mydas,87.5,1,,POINT (159.05999755859375 -29.920000076293945)
ep_m0_off_transect_sighting_public_data.fid--5e32c652_1963b673aa0_5558,912343007,Australia,New South Wales,Manning-Hawkesbury,Temperate Australasia,Port Stephens,PS3,Cabbage Tree Island West,-32.69,152.22,2013-04-22,5,RLS,4,9:00:00,-32.69,152.22,0,,Chordata,Reptilia,Testudines,Cheloniidae,Chelonia mydas,Chelonia mydas,62.5,1,,POINT (152.22 -32.69)
ep_m0_off_transect_sighting_public_data.fid--5e32c652_1963b673aa0_5559,912343114,Australia,Queensland,Coral Sea,Central Indo-Pacific,Coral Sea - South,CS32,Bird Reef Hole,-22.17,155.48,2013-05-19,4,RLS,35,11:00:00,,,0,,Chordata,Reptilia,Squamata,Elapidae,Aipysurus laevis,Aipysurus laevis,50,1,,POINT (155.47999572753906 -22.170000076293945)
ep_m0_off_transect_sighting_public_data.fid--5e32c652_1963b673aa0_555a,912343119,Australia,Queensland,Coral Sea,Central Indo-Pacific,Coral Sea - South,CS35,Bird NW Bommie,-22.17,155.45,2013-05-20,8,RLS,35,8:00:00,,,0,,Chordata,Reptilia,Squamata,Elapidae,Aipysurus laevis,Aipysurus laevis,50,1,,POINT (155.4499969482422 -22.170000076293945)
ep_m0_off_transect_sighting_public_data.fid--5e32c652_1963b673aa0_555b,912343121,Australia,Queensland,Coral Sea,Central Indo-Pacific,Coral Sea - South,CS36,Porpoise North,-22.19,155.36,2013-05-20,6,RLS,35,13:00:00,,,0,,Chordata,Reptilia,Squamata,Elapidae,Aipysurus laevis,Aipysurus laevis,75,1,,POINT (155.36000061035156 -22.190000534057617)
ep_m0_off_transect_sighting_public_data.fid--5e32c652_1963b673aa0_555c,912343125,Australia,Queensland,Coral Sea,Central Indo-Pacific,Coral Sea - South,CS38,Porpoise Anchorage,-22.19,155.36,2013-05-21,9,RLS,40,8:00:00,,,0,,Chordata,Reptilia,Squamata,Elapidae,Aipysurus laevis,Aipysurus laevis,75,1,,POINT (155.36000061035156 -22.190000534057617)
ep_m0_off_transect_sighting_public_data.fid--5e32c652_1963b673aa0_555d,912343130,Australia,Queensland,Coral Sea,Central Indo-Pacific,Coral Sea - South,CS40,Wreck Reef NE,-22.2,155.3,2013-05-21,5,RLS,40,12:00:00,,,0,,Chordata,Reptilia,Squamata,Elapidae,Aipysurus laevis,Aipysurus laevis,40,1,,POINT (155.3000030517578 -22.200000762939453)
ep_m0_off_transect_sighting_public_data.fid--5e32c652_1963b673aa0_555e,912343130,Australia,Queensland,Coral Sea,Central Indo-Pacific,Coral Sea - South,CS40,Wreck Reef NE,-22.2,155.3,2013-05-21,5,RLS,40,12:00:00,,,0,,Chordata,Reptilia,Squamata,Elapidae,Aipysurus laevis,Aipysurus laevis,50,1,,POINT (155.3000030517578 -22.200000762939453)
ep_m0_off_transect_sighting_public_data.fid--5e32c652_1963b673aa0_555f,912343131,Australia,Queensland,Coral Sea,Central Indo-Pacific,Coral Sea - South,CS41,Wreck North,-22.2,155.29,2013-05-21,9,RLS,40,13:00:00,,,0,,Chordata,Reptilia,Squamata,Elapidae,Aipysurus laevis,Aipysurus laevis,0,1,,POINT (155.2899932861328 -22.200000762939453)
ep_m0_off_transect_sighting_public_data.fid--5e32c652_1963b673aa0_5560,912343132,Australia,Queensland,Coral Sea,Central Indo-Pacific,Coral Sea - South,CS41,Wreck North,-22.2,155.29,2013-05-21,7,RLS,40,12:00:00,-22.2,155.29,0,0,Chordata,Reptilia,Squamata,Elapidae,Aipysurus laevis,Aipysurus laevis,62.5,1,,POINT (155.29 -22.2)
ep_m0_off_transect_sighting_public_data.fid--5e32c652_1963b673aa0_5561,912343139,Australia,Queensland,Coral Sea,Central Indo-Pacific,Coral Sea - South,CS45,North Wreck Reef,-22.18,155.18,2013-05-22,10,RLS,35,14:00:00,,,0,,Chordata,Reptilia,Squamata,Elapidae,Aipysurus laevis,Aipysurus laevis,87.5,1,,POINT (155.17999267578125 -22.18000030517578)
ep_m0_off_transect_sighting_public_data.fid--5e32c652_1963b673aa0_5562,912343147,Australia,Queensland,Central and Southern Great Barrier Reef,Central Indo-Pacific,Coral Sea - South,CS47,Saumarez egg seasnake,-21.9,153.54,2013-06-02,9,RLS,35,12:00:00,-21.9,153.54,0,,Chordata,Reptilia,Squamata,Elapidae,Acalyptophis peronii,Acalyptophis peronii,100,1,,POINT (153.54 -21.9)
ep_m0_off_transect_sighting_public_data.fid--5e32c652_1963b673aa0_5563,912343149,Australia,Queensland,Central and Southern Great Barrier Reef,Central Indo-Pacific,Coral Sea - South,CS50,Saumarez SW,-21.92,153.58,2013-06-02,9,RLS,20,15:00:00,,,0,,Chordata,Reptilia,Squamata,Elapidae,Acalyptophis peronii,Acalyptophis peronii,100,1,,POINT (153.5800018310547 -21.920000076293945)
ep_m0_off_transect_sighting_public_data.fid--5e32c652_1963b673aa0_5564,912343159,Australia,Queensland,Coral Sea,Central Indo-Pacific,Coral Sea - South,CS55,Kenn Labyrinth,-21.25,155.76,2013-06-04,5.5,RLS,14,11:00:00,,,0,,Chordata,Reptilia,Squamata,Elapidae,Acalyptophis peronii,Acalyptophis peronii,50,1,,POINT (155.75999450683594 -21.25)
ep_m0_off_transect_sighting_public_data.fid--5e32c652_1963b673aa0_5565,912343159,Australia,Queensland,Coral Sea,Central Indo-Pacific,Coral Sea - South,CS55,Kenn Labyrinth,-21.25,155.76,2013-06-04,5.5,RLS,14,11:00:00,,,0,,Chordata,Reptilia,Squamata,Elapidae,Aipysurus spp.,Aipysurus spp.,87.5,1,,POINT (155.75999450683594 -21.25)
ep_m0_off_transect_sighting_public_data.fid--5e32c652_1963b673aa0_5566,912343163,Australia,Queensland,Coral Sea,Central Indo-Pacific,Coral Sea - South,CS57,Kenn Cave,-21.25,155.76,2013-06-04,7.5,RLS,14,15:00:00,,,0,,Chordata,Reptilia,Squamata,Elapidae,Aipysurus spp.,Aipysurus spp.,50,1,,POINT (155.75999450683594 -21.25)
ep_m0_off_transect_sighting_public_data.fid--5e32c652_1963b673aa0_5567,912343164,Australia,Queensland,Coral Sea,Central Indo-Pacific,Coral Sea - South,CS57,Kenn Cave,-21.25,155.76,2013-06-04,9.5,RLS,20,15:00:00,,,0,,Chordata,Reptilia,Squamata,Elapidae,Acalyptophis peronii,Acalyptophis peronii,50,1,,POINT (155.75999450683594 -21.25)
ep_m0_off_transect_sighting_public_data.fid--5e32c652_1963b673aa0_5568,912343173,Australia,Queensland,Coral Sea,Central Indo-Pacific,Coral Sea - South,CS62,Fredrick Reef north bommie,-20.98,154.39,2013-06-06,10,RLS,40,8:00:00,,,0,,Chordata,Reptilia,Squamata,Elapidae,Emydocephalus annulatus,Emydocephalus annulatus,62.5,1,,POINT (154.38999938964844 -20.979999542236328)
ep_m0_off_transect_sighting_public_data.fid--5e32c652_1963b673aa0_5569,912343174,Australia,Queensland,Coral Sea,Central Indo-Pacific,Coral Sea - South,CS62,Fredrick Reef north bommie,-20.98,154.39,2013-06-06,14,RLS,40,8:00:00,,,0,,Chordata,Reptilia,Squamata,Elapidae,Aipysurus laevis,Aipysurus laevis,87.5,1,,POINT (154.38999938964844 -20.979999542236328)
ep_m0_off_transect_sighting_public_data.fid--5e32c652_1963b673aa0_556a,912343175,Australia,Queensland,Coral Sea,Central Indo-Pacific,Coral Sea - South,CS63,Frederick Passage,-21,154.39,2013-06-06,5.5,RLS,40,10:00:00,,,0,,Chordata,Reptilia,Squamata,Elapidae,Aipysurus laevis,Aipysurus laevis,62.5,1,,POINT (154.38999938964844 -21)
ep_m0_off_transect_sighting_public_data.fid--5e32c652_1963b673aa0_556b,912343175,Australia,Queensland,Coral Sea,Central Indo-Pacific,Coral Sea - South,CS63,Frederick Passage,-21,154.39,2013-06-06,5.5,RLS,40,10:00:00,,,0,,Chordata,Reptilia,Squamata,Elapidae,Aipysurus laevis,Aipysurus laevis,100,1,,POINT (154.38999938964844 -21)
ep_m0_off_transect_sighting_public_data.fid--5e32c652_1963b673aa0_556c,912343176,Australia,Queensland,Coral Sea,Central Indo-Pacific,Coral Sea - South,CS63,Frederick Passage,-21,154.39,2013-06-06,5,RLS,40,10:00:00,,,0,,Chordata,Reptilia,Squamata,Elapidae,Aipysurus laevis,Aipysurus laevis,87.5,1,,POINT (154.38999938964844 -21)
ep_m0_off_transect_sighting_public_data.fid--5e32c652_1963b673aa0_556d,912343180,Australia,Queensland,Coral Sea,Central Indo-Pacific,Coral Sea - South,CS65,Fredrick central reef,-21.01,154.39,2013-06-06,5,RLS,40,12:00:00,,,0,,Chordata,Reptilia,Squamata,Elapidae,Acalyptophis peronii,Acalyptophis peronii,100,1,,POINT (154.38999938964844 -21.010000228881836)
ep_m0_off_transect_sighting_public_data.fid--5e32c652_1963b673aa0_556e,912343197,Australia,Queensland,Coral Sea,Central Indo-Pacific,Coral Sea - South,CS74,Frederick Lighthouse,-20.94,154.4,2013-06-08,5.5,RLS,30,12:00:00,-20.94,154.4,0,0,Chordata,Reptilia,Squamata,Elapidae,Aipysurus laevis,Aipysurus laevis,87.5,1,,POINT (154.4 -20.94)
ep_m0_off_transect_sighting_public_data.fid--5e32c652_1963b673aa0_556f,912343750,Australia,Western Australia,Exmouth to Broome,Central Indo-Pacific,Ashmore/Cartier,NWS2,Barracouta Shoal,-12.56,124.04,2013-08-31,19,RLS,35,14:00:00,-12.56,124.04,0,0,Chordata,Reptilia,Squamata,Elapidae,Aipysurus laevis,Aipysurus laevis,112.5,2,,POINT (124.04 -12.56)
ep_m0_off_transect_sighting_public_data.fid--5e32c652_1963b673aa0_5570,912343750,Australia,Western Australia,Exmouth to Broome,Central Indo-Pacific,Ashmore/Cartier,NWS2,Barracouta Shoal,-12.56,124.04,2013-08-31,19,RLS,35,14:00:00,-12.56,124.04,0,0,Chordata,Reptilia,Squamata,Elapidae,Aipysurus laevis,Aipysurus laevis,125,2,,POINT (124.04 -12.56)
ep_m0_off_transect_sighting_public_data.fid--5e32c652_1963b673aa0_5571,912343750,Australia,Western Australia,Exmouth to Broome,Central Indo-Pacific,Ashmore/Cartier,NWS2,Barracouta Shoal,-12.56,124.04,2013-08-31,19,RLS,35,14:00:00,-12.56,124.04,0,0,Chordata,Reptilia,Squamata,Elapidae,Emydocephalus annulatus,Emydocephalus annulatus,112.5,1,,POINT (124.04 -12.56)
ep_m0_off_transect_sighting_public_data.fid--5e32c652_1963b673aa0_5572,912343750,Australia,Western Australia,Exmouth to Broome,Central Indo-Pacific,Ashmore/Cartier,NWS2,Barracouta Shoal,-12.56,124.04,2013-08-31,19,RLS,35,14:00:00,-12.56,124.04,0,0,Chordata,Reptilia,Squamata,Elapidae,Emydocephalus annulatus,Emydocephalus annulatus,125,1,,POINT (124.04 -12.56)
ep_m0_off_transect_sighting_public_data.fid--5e32c652_1963b673aa0_5573,912343767,Australia,Western Australia,Exmouth to Broome,Central Indo-Pacific,Scott & Seringapatam Reefs,NWS26,Seringapatam North,-13.62,121.99,2013-09-07,7.5,RLS,30,8:00:00,,,0,,Chordata,Reptilia,Squamata,Elapidae,Aipysurus laevis,Aipysurus laevis,87.5,1,,POINT (121.98999786376953 -13.619999885559082)
ep_m0_off_transect_sighting_public_data.fid--5e32c652_1963b673aa0_5574,912343767,Australia,Western Australia,Exmouth to Broome,Central Indo-Pacific,Scott & Seringapatam Reefs,NWS26,Seringapatam North,-13.62,121.99,2013-09-07,7.5,RLS,30,8:00:00,,,0,,Chordata,Reptilia,Testudines,Cheloniidae,Chelonia mydas,Chelonia mydas,75,1,,POINT (121.98999786376953 -13.619999885559082)
ep_m0_off_transect_sighting_public_data.fid--5e32c652_1963b673aa0_5575,912343769,Australia,Western Australia,Exmouth to Broome,Central Indo-Pacific,Scott & Seringapatam Reefs,NWS30,Longnose Spur,-14.14,121.96,2013-09-08,6,RLS,30,10:00:00,,,0,,Chordata,Reptilia,Squamata,Elapidae,Aipysurus laevis,Aipysurus laevis,112.5,1,,POINT (121.95999908447266 -14.140000343322754)
ep_m0_off_transect_sighting_public_data.fid--5e32c652_1963b673aa0_5576,912343781,Australia,Western Australia,Exmouth to Broome,Central Indo-Pacific,Ashmore/Cartier,NWS1,Vulcan Shoal,-12.8,124.27,2013-08-30,16,RLS,25,14:00:00,,,0,,Chordata,Reptilia,Squamata,Elapidae,Aipysurus laevis,Aipysurus laevis,112.5,1,,POINT (124.2699966430664 -12.800000190734863)
ep_m0_off_transect_sighting_public_data.fid--5e32c652_1963b673aa0_5577,912343781,Australia,Western Australia,Exmouth to Broome,Central Indo-Pacific,Ashmore/Cartier,NWS1,Vulcan Shoal,-12.8,124.27,2013-08-30,16,RLS,25,14:00:00,,,0,,Chordata,Reptilia,Squamata,Elapidae,Emydocephalus annulatus,Emydocephalus annulatus,62.5,1,,POINT (124.2699966430664 -12.800000190734863)
ep_m0_off_transect_sighting_public_data.fid--5e32c652_1963b673aa0_5578,912343795,Australia,Western Australia,Exmouth to Broome,Central Indo-Pacific,Scott & Seringapatam Reefs,NWS27,Election Day Reef,-14.07,121.96,2013-09-07,4,RLS,15,16:00:00,-14.07,121.96,0,,Chordata,Reptilia,Squamata,Elapidae,Aipysurus duboisii,Aipysurus duboisii,87.5,2,,POINT (121.96 -14.07)
ep_m0_off_transect_sighting_public_data.fid--5e32c652_1963b673aa0_5579,912343796,Australia,Western Australia,Exmouth to Broome,Central Indo-Pacific,Scott & Seringapatam Reefs,NWS28,Consolation Bommie,-14.13,121.94,2013-09-08,6,RLS,25,9:00:00,,,0,,Chordata,Reptilia,Squamata,Elapidae,Aipysurus duboisii,Aipysurus duboisii,87.5,1,,POINT (121.94000244140625 -14.130000114440918)
ep_m0_off_transect_sighting_public_data.fid--5e32c652_1963b673aa0_557a,912343796,Australia,Western Australia,Exmouth to Broome,Central Indo-Pacific,Scott & Seringapatam Reefs,NWS28,Consolation Bommie,-14.13,121.94,2013-09-08,6,RLS,25,9:00:00,,,0,,Chordata,Reptilia,Squamata,Elapidae,Aipysurus duboisii,Aipysurus duboisii,100,1,,POINT (121.94000244140625 -14.130000114440918)
ep_m0_off_transect_sighting_public_data.fid--5e32c652_1963b673aa0_557b,912343796,Australia,Western Australia,Exmouth to Broome,Central Indo-Pacific,Scott & Seringapatam Reefs,NWS28,Consolation Bommie,-14.13,121.94,2013-09-08,6,RLS,25,9:00:00,,,0,,Chordata,Reptilia,Squamata,Elapidae,Aipysurus laevis,Aipysurus laevis,87.5,2,,POINT (121.94000244140625 -14.130000114440918)
ep_m0_off_transect_sighting_public_data.fid--5e32c652_1963b673aa0_557c,912343798,Australia,Western Australia,Exmouth to Broome,Central Indo-Pacific,Scott & Seringapatam Reefs,NWS32,Goby Heaven,-14.11,121.96,2013-09-08,4,RLS,10,15:00:00,,,0,,Chordata,Reptilia,Squamata,Elapidae,Aipysurus duboisii,Aipysurus duboisii,87.5,1,,POINT (121.95999908447266 -14.109999656677246)
ep_m0_off_transect_sighting_public_data.fid--5e32c652_1963b673aa0_557d,912343799,Australia,Western Australia,Exmouth to Broome,Central Indo-Pacific,Scott & Seringapatam Reefs,NWS33,NE Passage,-14.06,121.96,2013-09-09,6,RLS,30,8:00:00,,,0,,Chordata,Reptilia,Squamata,Elapidae,Aipysurus laevis,Aipysurus laevis,50,1,,POINT (121.95999908447266 -14.0600004196167)
ep_m0_off_transect_sighting_public_data.fid--5e32c652_1963b673aa0_557e,912343800,Australia,Western Australia,Exmouth to Broome,Central Indo-Pacific,Scott & Seringapatam Reefs,NWS34,Table Tip,-14.06,121.97,2013-09-09,5,RLS,30,11:00:00,,,0,,Chordata,Reptilia,Squamata,Elapidae,Aipysurus laevis,Aipysurus laevis,87.5,1,,POINT (121.97000122070312 -14.0600004196167)
ep_m0_off_transect_sighting_public_data.fid--5e32c652_1963b673aa0_557f,912343801,Australia,Western Australia,Exmouth to Broome,Central Indo-Pacific,Scott & Seringapatam Reefs,NWS35,Ian's Anchorage,-14.07,121.95,2013-09-09,6,RLS,15,14:00:00,,,0,,Chordata,Reptilia,Squamata,Elapidae,Aipysurus laevis,Aipysurus laevis,125,3,,POINT (121.94999694824219 -14.069999694824219)
ep_m0_off_transect_sighting_public_data.fid--5e32c652_1963b673aa0_5580,912343802,Australia,Western Australia,Exmouth to Broome,Central Indo-Pacific,Scott & Seringapatam Reefs,NWS36,Fungiid Fields,-14.07,121.79,2013-09-10,8,RLS,35,9:00:00,,,0,,Chordata,Reptilia,Squamata,Elapidae,Aipysurus laevis,Aipysurus laevis,125,2,,POINT (121.79000091552734 -14.069999694824219)
ep_m0_off_transect_sighting_public_data.fid--5e32c652_1963b673aa0_5581,912343803,Australia,Western Australia,Exmouth to Broome,Central Indo-Pacific,Scott & Seringapatam Reefs,NWS37,Stake Edge,-14.05,121.78,2013-09-10,6,RLS,35,11:00:00,,,0,,Chordata,Reptilia,Squamata,Elapidae,Emydocephalus annulatus,Emydocephalus annulatus,100,1,,POINT (121.77999877929688 -14.050000190734863)
ep_m0_off_transect_sighting_public_data.fid--5e32c652_1963b673aa0_5582,912343804,Australia,Western Australia,Exmouth to Broome,Central Indo-Pacific,Scott & Seringapatam Reefs,NWS38,Chaetodontoides,-14.07,121.78,2013-09-10,5,RLS,25,15:00:00,,,0,,Chordata,Reptilia,Squamata,Hydrophiidae,Hydrophiidae spp.,Hydrophiid spp.,62.5,1,,POINT (121.77999877929688 -14.069999694824219)
ep_m0_off_transect_sighting_public_data.fid--5e32c652_1963b673aa0_5583,912343807,Australia,Western Australia,Exmouth to Broome,Central Indo-Pacific,Scott & Seringapatam Reefs,NWS41,Dead West,-14.11,121.72,2013-09-11,12,RLS,25,14:00:00,,,0,,Chordata,Reptilia,Squamata,Elapidae,Aipysurus laevis,Aipysurus laevis,100,1,,POINT (121.72000122070312 -14.109999656677246)
ep_m0_off_transect_sighting_public_data.fid--5e32c652_1963b673aa0_5584,912343830,Australia,Northern Territory,Arnhem Coast to Gulf of Carpenteria,Central Indo-Pacific,Wessel,NT102,Burston Bay,-11.22,136.69,2013-08-10,3,RLS,10,9:00:00,,,0,,Chordata,Reptilia,Testudines,Cheloniidae,Chelonia mydas,Chelonia mydas,50,1,,POINT (136.69000244140625 -11.220000267028809)
ep_m0_off_transect_sighting_public_data.fid--5e32c652_1963b673aa0_5585,912344196,Australia,Western Australia,Exmouth to Broome,Central Indo-Pacific,Rowley Shoals,NWS65,Mermaid south M7,-17.13,119.63,2013-09-25,7,RLS,30,10:00:00,-17.13,119.63,0,,Chordata,Reptilia,Testudines,Cheloniidae,Chelonia mydas,Chelonia mydas,0,1,,POINT (119.63 -17.13)
ep_m0_off_transect_sighting_public_data.fid--5e32c652_1963b673aa0_5586,912344284,Australia,Western Australia,Exmouth to Broome,Central Indo-Pacific,Pilbara,NWS111,Corneliesse Shoal,-20.03,118.38,2013-10-13,17,RLS,20,16:00:00,,,0,,Chordata,Reptilia,Squamata,Elapidae,Hydrophis ornatus ocellatus,Hydrophis ornatus ocellatus,50,1,,POINT (118.37999725341797 -20.030000686645508)
ep_m0_off_transect_sighting_public_data.fid--5e32c652_1963b673aa0_5587,912344306,Australia,Western Australia,Exmouth to Broome,Central Indo-Pacific,Pilbara,NWS122,Sailfish South 2,-20.46,116.57,2013-10-17,3,RLS,8,13:00:00,,,0,,Chordata,Reptilia,Squamata,Elapidae,Aipysurus laevis,Aipysurus laevis,100,1,,POINT (116.56999969482422 -20.459999084472656)
ep_m0_off_transect_sighting_public_data.fid--5e32c652_1963b673aa0_5588,912344306,Australia,Western Australia,Exmouth to Broome,Central Indo-Pacific,Pilbara,NWS122,Sailfish South 2,-20.46,116.57,2013-10-17,3,RLS,8,13:00:00,,,0,,Chordata,Reptilia,Testudines,Cheloniidae,Chelonia mydas,Chelonia mydas,62.5,1,,POINT (116.56999969482422 -20.459999084472656)
ep_m0_off_transect_sighting_public_data.fid--5e32c652_1963b673aa0_5589,912344319,Australia,Western Australia,Exmouth to Broome,Central Indo-Pacific,Pilbara,NWS128,Trimouille Island SE,-20.41,115.58,2013-10-21,3,RLS,10,8:00:00,,,0,,Chordata,Reptilia,Testudines,Cheloniidae,Chelonia mydas,Chelonia mydas,40,1,,POINT (115.58000183105469 -20.40999984741211)
ep_m0_off_transect_sighting_public_data.fid--5e32c652_1963b673aa0_558a,912344328,Australia,Western Australia,Exmouth to Broome,Central Indo-Pacific,Pilbara,NWS133,North West Island NW,-20.37,115.51,2013-10-22,5,RLS,8,9:00:00,,,0,,Chordata,Reptilia,Testudines,Cheloniidae,Chelonia mydas,Chelonia mydas,50,1,,POINT (115.51000213623047 -20.3700008392334)
ep_m0_off_transect_sighting_public_data.fid--5e32c652_1963b673aa0_558b,912344358,Australia,Western Australia,Exmouth to Broome,Central Indo-Pacific,Pilbara,NWS148,Barrow Island East,-20.78,115.53,2013-10-27,7,RLS,14,14:00:00,-20.78,115.53,0,0,Chordata,Reptilia,Testudines,Cheloniidae,Chelonia mydas,Chelonia mydas,112.5,1,,POINT (115.53 -20.78)
ep_m0_off_transect_sighting_public_data.fid--5e32c652_1963b673aa0_558c,912344365,Australia,Western Australia,Exmouth to Broome,Central Indo-Pacific,Pilbara,NWS152,Barrow south shelf,-20.95,115.46,2013-10-28,2,RLS,14,10:00:00,,,0,,Chordata,Reptilia,Testudines,Cheloniidae,Chelonia mydas,Chelonia mydas,50,1,,POINT (115.45999908447266 -20.950000762939453)
ep_m0_off_transect_sighting_public_data.fid--5e32c652_1963b673aa0_558d,912344375,Australia,Western Australia,Exmouth to Broome,Central Indo-Pacific,Exmouth,NWS158,North Muiron Island East,-21.65,114.38,2013-10-30,5,RLS,13,10:00:00,,,0,,Chordata,Reptilia,Testudines,Cheloniidae,Chelonia mydas,Chelonia mydas,40,1,,POINT (114.37999725341797 -21.649999618530273)
ep_m0_off_transect_sighting_public_data.fid--5e32c652_1963b673aa0_558e,912344385,Australia,Western Australia,Exmouth to Broome,Central Indo-Pacific,Pilbara,WA65,Dead Tree Beach,-20.62,116.51,2013-10-19,3,RLS,12,8:00:00,,,0,,Chordata,Reptilia,Testudines,Cheloniidae,Chelonia mydas,Chelonia mydas,50,1,,POINT (116.51000213623047 -20.6200008392334)
ep_m0_off_transect_sighting_public_data.fid--5e32c652_1963b673aa0_558f,912344876,Australia,New South Wales,Manning-Hawkesbury,Temperate Australasia,Port Stephens,PS17,Fly Point Nelson Bay,-32.71,152.15,2015-03-20,7.2,RLS,10,9:00:00,,,0,,Chordata,Reptilia,Testudines,Cheloniidae,Chelonia mydas,Chelonia mydas,62.5,1,,POINT (152.14999389648438 -32.709999084472656)
ep_m0_off_transect_sighting_public_data.fid--5e32c652_1963b673aa0_5590,912344902,Australia,Western Australia,Exmouth to Broome,Central Indo-Pacific,Exmouth,NMP-BF3,Bundegi SZ South,-21.87,114.16,2015-07-30,2.2,RLS,15,13:00:00,,,0,,Chordata,Reptilia,Testudines,Cheloniidae,Chelonia mydas,Chelonia mydas,75,1,,POINT (114.16000366210938 -21.8700008392334)
ep_m0_off_transect_sighting_public_data.fid--5e32c652_1963b673aa0_5591,912344906,Australia,Western Australia,Ningaloo,Central Indo-Pacific,Ningaloo Reef,NMP32,Monck Bowl,-23.16,113.76,2015-08-02,5.1,RLS,15,9:00:00,,,0,,Chordata,Reptilia,Testudines,Cheloniidae,Chelonia mydas,Chelonia mydas,87.5,1,,POINT (113.76000213623047 -23.15999984741211)
ep_m0_off_transect_sighting_public_data.fid--5e32c652_1963b673aa0_5592,912344939,Australia,Western Australia,Ningaloo,Central Indo-Pacific,Ningaloo Reef,NMP29,Monck Wall,-23.17,113.76,2015-08-01,2,RLS,12,12:00:00,,,0,,Chordata,Reptilia,Testudines,Cheloniidae,Chelonia mydas,Chelonia mydas,100,1,,POINT (113.76000213623047 -23.170000076293945)
ep_m0_off_transect_sighting_public_data.fid--5e32c652_1963b673aa0_5593,912345516,Australia,Queensland,Torres Strait Northern Great Barrier Reef,Central Indo-Pacific,Coral Sea - Far North,CS185,Ashmore reef lagoon South,-10.45,144.45,2015-07-30,2.5,RLS,30,15:00:00,,,0,,Chordata,Reptilia,Squamata,Elapidae,Aipysurus laevis,Aipysurus laevis,62.5,1,,POINT (144.4499969482422 -10.449999809265137)
ep_m0_off_transect_sighting_public_data.fid--5e32c652_1963b673aa0_5594,912345517,Australia,Queensland,Torres Strait Northern Great Barrier Reef,Central Indo-Pacific,Coral Sea - Far North,CS185,Ashmore reef lagoon South,-10.45,144.45,2015-07-30,2,RLS,30,15:00:00,-10.45,144.45,0,0,Chordata,Reptilia,Squamata,Elapidae,Aipysurus laevis,Aipysurus laevis,100,1,,POINT (144.45 -10.45)
ep_m0_off_transect_sighting_public_data.fid--5e32c652_1963b673aa0_5595,912345537,Australia,Queensland,Torres Strait Northern Great Barrier Reef,Central Indo-Pacific,Coral Sea - Far North,CS198,Ashmore NE Lagoon,-10.23,144.59,2015-08-03,5,RLS,25,14:00:00,,,0,,Chordata,Reptilia,Squamata,Elapidae,Aipysurus laevis,Aipysurus laevis,100,1,,POINT (144.58999633789062 -10.229999542236328)
ep_m0_off_transect_sighting_public_data.fid--5e32c652_1963b673aa0_5596,912345550,Australia,Western Australia,Leeuwin,Temperate Australasia,Rottnest Island,RI12,West End  Rottnest,-32.03,115.44,2015-05-23,12,RLS,18,8:00:00,,,0,,Chordata,Reptilia,Testudines,Cheloniidae,Caretta caretta,Caretta caretta,150,1,,POINT (115.44000244140625 -32.029998779296875)
ep_m0_off_transect_sighting_public_data.fid--5e32c652_1963b673aa0_5597,912345562,Australia,Western Australia,Leeuwin,Temperate Australasia,Rottnest Island,RI12,West End  Rottnest,-32.03,115.44,2015-05-23,15,RLS,15,8:00:00,,,0,,Chordata,Reptilia,Testudines,Cheloniidae,Caretta caretta,Caretta caretta,125,1,,POINT (115.44000244140625 -32.029998779296875)
ep_m0_off_transect_sighting_public_data.fid--5e32c652_1963b673aa0_5598,912345562,Australia,Western Australia,Leeuwin,Temperate Australasia,Rottnest Island,RI12,West End  Rottnest,-32.03,115.44,2015-05-23,15,RLS,15,8:00:00,,,0,,Chordata,Reptilia,Testudines,Cheloniidae,Caretta caretta,Caretta caretta,100,1,,POINT (115.44000244140625 -32.029998779296875)
ep_m0_off_transect_sighting_public_data.fid--5e32c652_1963b673aa0_5599,912345929,Australia,New South Wales,Manning-Hawkesbury,Temperate Australasia,Port Stephens,PS17,Fly Point Nelson Bay,-32.71,152.15,2013-09-20,12,RLS,6,8:00:00,,,0,,Chordata,Reptilia,Testudines,Cheloniidae,Chelonia mydas,Chelonia mydas,62.5,1,,POINT (152.14999389648438 -32.709999084472656)
ep_m0_off_transect_sighting_public_data.fid--5e32c652_1963b673aa0_559a,912346199,Australia,New South Wales,Lord Howe and Norfolk Islands,Central Indo-Pacific,Lord Howe Island,LHI54,New Gulch,-31.51,159.04,2016-02-24,15,RLS,25,2:00:00,-31.51,159.04,0,,Chordata,Reptilia,Testudines,Cheloniidae,Eretmochelys imbricata,Eretmochelys imbricata,62.5,2,,POINT (159.04 -31.51)
ep_m0_off_transect_sighting_public_data.fid--5e32c652_1963b673aa0_559b,912346223,Australia,New South Wales,Lord Howe and Norfolk Islands,Central Indo-Pacific,Lord Howe Island,LHI1,North Bommie,-31.52,159.04,2016-02-15,14.2,RLS,20,8:00:00,,,0,,Chordata,Reptilia,Testudines,Cheloniidae,Chelonia mydas,Chelonia mydas,40,1,,POINT (159.0399932861328 -31.520000457763672)
ep_m0_off_transect_sighting_public_data.fid--5e32c652_1963b673aa0_559c,912346333,Australia,Queensland,Coral Sea,Central Indo-Pacific,Coral Sea - Central,CS1,Long Reef West,-19.3,152.24,2016-06-07,9.5,RLS,40,9:00:00,,,0,,Chordata,Reptilia,Squamata,Elapidae,Aipysurus laevis,Aipysurus laevis,5,2,,POINT (152.24000549316406 -19.299999237060547)
ep_m0_off_transect_sighting_public_data.fid--5e32c652_1963b673aa0_559d,912346339,Australia,Queensland,Coral Sea,Central Indo-Pacific,Coral Sea - Central,CS8,Carola Cay,-19.1,152.39,2016-06-09,5,RLS,30,9:00:00,,,0,,Chordata,Reptilia,Squamata,Elapidae,Aipysurus laevis,Aipysurus laevis,75,1,,POINT (152.38999938964844 -19.100000381469727)
ep_m0_off_transect_sighting_public_data.fid--5e32c652_1963b673aa0_559e,912346422,Australia,New South Wales,Manning-Hawkesbury,Temperate Australasia,Sydney,SYD56,Long Reef Basin,-33.74,151.31,2015-03-30,3,RLS,6,9:00:00,,,0,,Chordata,Reptilia,Testudines,Cheloniidae,Chelonia mydas,Chelonia mydas,75,1,,POINT (151.30999755859375 -33.7400016784668)
ep_m0_off_transect_sighting_public_data.fid--5e32c652_1963b673aa0_559f,912346541,Australia,New South Wales,Tweed-Moreton,Temperate Australasia,Solitary Islands,SI2,Anemone Bay N Solitary Is,-29.92,153.39,2016-05-07,10,RLS,25,9:00:00,,,0,,Chordata,Reptilia,Testudines,Cheloniidae,Chelonia mydas,Chelonia mydas,125,1,,POINT (153.38999938964844 -29.920000076293945)
ep_m0_off_transect_sighting_public_data.fid--5e32c652_1963b673aa0_55a0,912346549,Australia,New South Wales,Tweed-Moreton,Temperate Australasia,Solitary Islands,SI25,SW Solitary North Mooring,-30.15,153.23,2016-05-06,9,RLS,20,12:00:00,-30.16,153.23,0,,Chordata,Reptilia,Testudines,Cheloniidae,Chelonia mydas,Chelonia mydas,50,1,,POINT (153.23 -30.16)
ep_m0_off_transect_sighting_public_data.fid--5e32c652_1963b673aa0_55a1,912346650,Australia,Western Australia,Ningaloo,Central Indo-Pacific,Ningaloo Reef,NMP-S2,Bruboodjoo,-22.93,113.78,2016-07-30,2,RLS,15,13:00:00,,,0,,Chordata,Reptilia,Testudines,Cheloniidae,Chelonia mydas,Chelonia mydas,0,1,,POINT (113.77999877929688 -22.93000030517578)
ep_m0_off_transect_sighting_public_data.fid--5e32c652_1963b673aa0_55a2,912346673,Australia,Western Australia,Ningaloo,Central Indo-Pacific,Ningaloo Reef,NMP8,Maud SZ external,-23.18,113.76,2016-08-01,2,RLS,10,13:00:00,,,0,,Chordata,Reptilia,Testudines,Cheloniidae,Chelonia mydas,Chelonia mydas,62.5,1,,POINT (113.76000213623047 -23.18000030517578)
ep_m0_off_transect_sighting_public_data.fid--5e32c652_1963b673aa0_55a3,912346677,Australia,Western Australia,Ningaloo,Central Indo-Pacific,Ningaloo Reef,NMP-C3,Coral Bay Central,-23.14,113.75,2016-08-02,4,RLS,20,13:00:00,,,0,,Chordata,Reptilia,Testudines,Cheloniidae,Chelonia mydas,Chelonia mydas,62.5,1,,POINT (113.75 -23.139999389648438)
ep_m0_off_transect_sighting_public_data.fid--5e32c652_1963b673aa0_55a4,912346713,Australia,Western Australia,Exmouth to Broome,Central Indo-Pacific,Exmouth,NMP-BF3,Bundegi SZ South,-21.87,114.16,2016-08-05,3.5,RLS,10,14:00:00,,,0,,Chordata,Reptilia,Squamata,Elapidae,Aipysurus laevis,Aipysurus laevis,125,1,,POINT (114.16000366210938 -21.8700008392334)
ep_m0_off_transect_sighting_public_data.fid--5e32c652_1963b673aa0_55a5,912346713,Australia,Western Australia,Exmouth to Broome,Central Indo-Pacific,Exmouth,NMP-BF3,Bundegi SZ South,-21.87,114.16,2016-08-05,3.5,RLS,10,14:00:00,,,0,,Chordata,Reptilia,Testudines,Cheloniidae,Chelonia mydas,Chelonia mydas,62.5,1,,POINT (114.16000366210938 -21.8700008392334)
ep_m0_off_transect_sighting_public_data.fid--5e32c652_1963b673aa0_55a6,912346713,Australia,Western Australia,Exmouth to Broome,Central Indo-Pacific,Exmouth,NMP-BF3,Bundegi SZ South,-21.87,114.16,2016-08-05,3.5,RLS,10,14:00:00,,,0,,Chordata,Reptilia,Testudines,Cheloniidae,Chelonia mydas,Chelonia mydas,75,1,,POINT (114.16000366210938 -21.8700008392334)
ep_m0_off_transect_sighting_public_data.fid--5e32c652_1963b673aa0_55a7,912346714,Australia,Western Australia,Exmouth to Broome,Central Indo-Pacific,Exmouth,NMP-BF3,Bundegi SZ South,-21.87,114.16,2016-08-05,3.8,RLS,10,14:00:00,,,0,,Chordata,Reptilia,Testudines,Cheloniidae,Chelonia mydas,Chelonia mydas,75,1,,POINT (114.16000366210938 -21.8700008392334)
ep_m0_off_transect_sighting_public_data.fid--5e32c652_1963b673aa0_55a8,912346779,Australia,Queensland,Coral Sea,Central Indo-Pacific,Coral Sea - North,CS157,Osprey Pass Channel,-13.9,146.56,2016-12-03,12,RLS,40,9:00:00,-13.9,146.56,0,,Chordata,Reptilia,Testudines,Cheloniidae,Eretmochelys imbricata,Eretmochelys imbricata,50,1,,POINT (146.56 -13.9)
ep_m0_off_transect_sighting_public_data.fid--5e32c652_1963b673aa0_55a9,912346786,Australia,Queensland,Coral Sea,Central Indo-Pacific,Coral Sea - North,CS180,Osprey S W Bommie,-13.97,146.67,2016-12-04,13,RLS,30,12:00:00,,,0,,Chordata,Reptilia,Testudines,Cheloniidae,Chelonia mydas,Chelonia mydas,40,1,,POINT (146.6699981689453 -13.970000267028809)
ep_m0_off_transect_sighting_public_data.fid--5e32c652_1963b673aa0_55aa,912346838,Australia,Queensland,Torres Strait Northern Great Barrier Reef,Central Indo-Pacific,Coral Sea - Far North,CS195,Ashmore North East Entrance,-10.22,144.6,2016-12-13,8,RLS,15,13:00:00,,,0,,Chordata,Reptilia,Squamata,Elapidae,Aipysurus laevis,Aipysurus laevis,0,1,,POINT (144.60000610351562 -10.220000267028809)
ep_m0_off_transect_sighting_public_data.fid--5e32c652_1963b673aa0_55ab,912346856,Australia,Queensland,Torres Strait Northern Great Barrier Reef,Central Indo-Pacific,Coral Sea - Far North,CS211,Kate's Garden,-10.14,144.58,2016-12-16,5,RLS,25,7:00:00,,,0,,Chordata,Reptilia,Squamata,Elapidae,Aipysurus laevis,Aipysurus laevis,75,1,,POINT (144.5800018310547 -10.140000343322754)
ep_m0_off_transect_sighting_public_data.fid--5e32c652_1963b673aa0_55ac,912347045,Australia,Queensland,Coral Sea,Central Indo-Pacific,Coral Sea - South,CS21,Cato Lagoon 1,-23.25,155.55,2017-02-22,2.4,RLS,40,10:00:00,-23.25,155.55,0,0,Chordata,Reptilia,Squamata,Elapidae,Aipysurus laevis,Aipysurus laevis,100,1,,POINT (155.55 -23.25)
ep_m0_off_transect_sighting_public_data.fid--5e32c652_1963b673aa0_55ad,912347053,Australia,Queensland,Coral Sea,Central Indo-Pacific,Coral Sea - South,CS25,Cato Passage,-23.24,155.55,2017-02-21,7,RLS,35,9:00:00,,,0,,Chordata,Reptilia,Squamata,Elapidae,Aipysurus duboisii,Aipysurus duboisii,75,1,,POINT (155.5500030517578 -23.239999771118164)
ep_m0_off_transect_sighting_public_data.fid--5e32c652_1963b673aa0_55ae,912347079,Australia,Queensland,Coral Sea,Central Indo-Pacific,Coral Sea - South,CS52,Kenn Reef anchorage bommie,-21.26,155.75,2017-02-28,14,RLS,40,10:00:00,,,0,,Chordata,Reptilia,Squamata,Elapidae,Acalyptophis peronii,Acalyptophis peronii,100,1,,POINT (155.75 -21.260000228881836)
ep_m0_off_transect_sighting_public_data.fid--5e32c652_1963b673aa0_55af,912347079,Australia,Queensland,Coral Sea,Central Indo-Pacific,Coral Sea - South,CS52,Kenn Reef anchorage bommie,-21.26,155.75,2017-02-28,14,RLS,40,10:00:00,,,0,,Chordata,Reptilia,Squamata,Elapidae,Emydocephalus annulatus,Emydocephalus annulatus,100,1,,POINT (155.75 -21.260000228881836)
ep_m0_off_transect_sighting_public_data.fid--5e32c652_1963b673aa0_55b0,912347096,Australia,Queensland,Coral Sea,Central Indo-Pacific,Coral Sea - South,CS60,Kenn Reef North Cay,-21.2,155.77,2017-03-02,8,RLS,40,11:00:00,,,0,,Chordata,Reptilia,Testudines,Cheloniidae,Caretta caretta,Caretta caretta,125,1,,POINT (155.77000427246094 -21.200000762939453)
ep_m0_off_transect_sighting_public_data.fid--5e32c652_1963b673aa0_55b1,912347110,Australia,Queensland,Coral Sea,Central Indo-Pacific,Coral Sea - South,CS65,Fredrick central reef,-21.01,154.39,2017-03-05,3,RLS,35,8:00:00,,,0,,Chordata,Reptilia,Squamata,Elapidae,Aipysurus duboisii,Aipysurus duboisii,100,1,,POINT (154.38999938964844 -21.010000228881836)
ep_m0_off_transect_sighting_public_data.fid--5e32c652_1963b673aa0_55b2,912347110,Australia,Queensland,Coral Sea,Central Indo-Pacific,Coral Sea - South,CS65,Fredrick central reef,-21.01,154.39,2017-03-05,3,RLS,35,8:00:00,,,0,,Chordata,Reptilia,Squamata,Elapidae,Aipysurus laevis,Aipysurus laevis,87.5,1,,POINT (154.38999938964844 -21.010000228881836)
ep_m0_off_transect_sighting_public_data.fid--5e32c652_1963b673aa0_55b3,912347110,Australia,Queensland,Coral Sea,Central Indo-Pacific,Coral Sea - South,CS65,Fredrick central reef,-21.01,154.39,2017-03-05,3,RLS,35,8:00:00,,,0,,Chordata,Reptilia,Squamata,Elapidae,Aipysurus laevis,Aipysurus laevis,100,1,,POINT (154.38999938964844 -21.010000228881836)
ep_m0_off_transect_sighting_public_data.fid--5e32c652_1963b673aa0_55b4,912347463,Australia,Queensland,Central and Southern Great Barrier Reef,Central Indo-Pacific,GBR - South,GBR152,AIMS-19131S1,-19.77,149.38,2016-02-07,5,RLS,20,14:00:00,,,0,,Chordata,Reptilia,Testudines,Cheloniidae,Chelonia mydas,Chelonia mydas,100,1,,POINT (149.3800048828125 -19.770000457763672)
ep_m0_off_transect_sighting_public_data.fid--5e32c652_1963b673aa0_55b5,912347510,Australia,Queensland,Torres Strait Northern Great Barrier Reef,Central Indo-Pacific,GBR - North,GBR91,Distant Garden,-11.98,143.65,2016-12-27,6,RLS,10,16:00:00,,,0,,Chordata,Reptilia,Testudines,Cheloniidae,Caretta caretta,Caretta caretta,187.5,1,,POINT (143.64999389648438 -11.979999542236328)
ep_m0_off_transect_sighting_public_data.fid--5e32c652_1963b673aa0_55b6,912347666,Australia,Queensland,Coral Sea,Central Indo-Pacific,Coral Sea - Central,CS101,Diamond Cay Islet,-17.41,151.07,2016-11-18,12,RLS,35,8:00:00,,,0,,Chordata,Reptilia,Testudines,Cheloniidae,Cheloniidae spp.,Cheloniid spp.,100,3,,POINT (151.07000732421875 -17.40999984741211)
ep_m0_off_transect_sighting_public_data.fid--5e32c652_1963b673aa0_55b7,912347669,Australia,Queensland,Coral Sea,Central Indo-Pacific,Coral Sea - Central,CS225,Magdelaine Vista del Mar,-16.53,150.28,2016-11-19,5,RLS,35,15:00:00,,,0,,Chordata,Reptilia,Testudines,Cheloniidae,Cheloniidae spp.,Cheloniid spp.,112.5,4,,POINT (150.27999877929688 -16.530000686645508)
ep_m0_off_transect_sighting_public_data.fid--5e32c652_1963b673aa0_55b8,912347672,Australia,Queensland,Coral Sea,Central Indo-Pacific,Coral Sea - Central,CS145,South Willis islet anchorage bommie,-16.29,149.96,2016-11-21,10,RLS,50,13:00:00,,,0,,Chordata,Reptilia,Testudines,Cheloniidae,Cheloniidae spp.,Cheloniid spp.,112.5,1,,POINT (149.9600067138672 -16.290000915527344)
ep_m0_off_transect_sighting_public_data.fid--5e32c652_1963b673aa0_55b9,912347673,Australia,Queensland,Coral Sea,Central Indo-Pacific,Coral Sea - Central,CS144,Willis Islet Dark Wall,-16.29,149.96,2016-11-21,5,RLS,50,15:00:00,-16.29,149.96,0,0,Chordata,Reptilia,Testudines,Cheloniidae,Cheloniidae spp.,Cheloniid spp.,112.5,1,,POINT (149.96 -16.29)
ep_m0_off_transect_sighting_public_data.fid--5e32c652_1963b673aa0_55ba,912347705,Australia,Queensland,Coral Sea,Central Indo-Pacific,Coral Sea - Central,CS17,SW South West Islet,-16.97,149.9,2017-01-20,7,RLS,40,10:00:00,-16.97,149.9,0,0,Chordata,Reptilia,Testudines,Cheloniidae,Chelonia mydas,Chelonia mydas,150,1,,POINT (149.9 -16.97)
ep_m0_off_transect_sighting_public_data.fid--5e32c652_1963b673aa0_55bb,912347751,Australia,Queensland,Coral Sea,Central Indo-Pacific,Coral Sea - Central,CS5,Paget Cay South East,-19.25,152.35,2017-03-19,4.1,RLS,30,13:00:00,,,0,,Chordata,Reptilia,Squamata,Elapidae,Aipysurus laevis,Aipysurus laevis,100,1,,POINT (152.35000610351562 -19.25)
ep_m0_off_transect_sighting_public_data.fid--5e32c652_1963b673aa0_55bc,912347758,Australia,Queensland,Central and Southern Great Barrier Reef,Central Indo-Pacific,Capricorn-Bunker,GBR16,Tryon Island south,-23.25,151.77,2017-02-15,8,RLS,20,12:00:00,,,0,,Chordata,Reptilia,Testudines,Cheloniidae,Chelonia mydas,Chelonia mydas,100,2,,POINT (151.77000427246094 -23.25)
ep_m0_off_transect_sighting_public_data.fid--5e32c652_1963b673aa0_55bd,912347758,Australia,Queensland,Central and Southern Great Barrier Reef,Central Indo-Pacific,Capricorn-Bunker,GBR16,Tryon Island south,-23.25,151.77,2017-02-15,8,RLS,20,12:00:00,,,0,,Chordata,Reptilia,Testudines,Cheloniidae,Chelonia mydas,Chelonia mydas,125,1,,POINT (151.77000427246094 -23.25)
ep_m0_off_transect_sighting_public_data.fid--5e32c652_1963b673aa0_55be,912347758,Australia,Queensland,Central and Southern Great Barrier Reef,Central Indo-Pacific,Capricorn-Bunker,GBR16,Tryon Island south,-23.25,151.77,2017-02-15,8,RLS,20,12:00:00,,,0,,Chordata,Reptilia,Testudines,Cheloniidae,Chelonia mydas,Chelonia mydas,150,1,,POINT (151.77000427246094 -23.25)
ep_m0_off_transect_sighting_public_data.fid--5e32c652_1963b673aa0_55bf,912347785,Australia,Queensland,Central and Southern Great Barrier Reef,Central Indo-Pacific,QLD inshore - South,GBR109,Middle Percy NW Notch,-21.62,150.25,2017-02-08,9.7,RLS,6,8:00:00,-21.65,150.24,0,,Chordata,Reptilia,Testudines,Cheloniidae,Chelonia mydas,Chelonia mydas,187.5,3,,POINT (150.24 -21.65)
ep_m0_off_transect_sighting_public_data.fid--5e32c652_1963b673aa0_55c0,912347800,Australia,New South Wales,Tweed-Moreton,Temperate Australasia,Solitary Islands,SI17,Cleaner Station,-30.2,153.27,2017-05-05,8,RLS,25,9:00:00,,,0,,Chordata,Reptilia,Testudines,Cheloniidae,Chelonia mydas,Chelonia mydas,62.5,1,,POINT (153.27000427246094 -30.200000762939453)
ep_m0_off_transect_sighting_public_data.fid--5e32c652_1963b673aa0_55c1,912347815,Australia,New South Wales,Tweed-Moreton,Temperate Australasia,Solitary Islands,SI7,South Boulder Wall,-30.2,153.27,2017-05-05,12,RLS,20,11:00:00,,,0,,Chordata,Reptilia,Testudines,Cheloniidae,Caretta caretta,Caretta caretta,100,1,,POINT (153.27000427246094 -30.200000762939453)
ep_m0_off_transect_sighting_public_data.fid--5e32c652_1963b673aa0_55c2,912347815,Australia,New South Wales,Tweed-Moreton,Temperate Australasia,Solitary Islands,SI7,South Boulder Wall,-30.2,153.27,2017-05-05,12,RLS,20,11:00:00,,,0,,Chordata,Reptilia,Testudines,Cheloniidae,Chelonia mydas,Chelonia mydas,100,1,,POINT (153.27000427246094 -30.200000762939453)
ep_m0_off_transect_sighting_public_data.fid--5e32c652_1963b673aa0_55c3,912349634,Australia,Western Australia,Exmouth to Broome,Central Indo-Pacific,Exmouth,NMP-BF3,Bundegi SZ South,-21.87,114.16,2017-07-28,4,RLS,6,9:00:00,,,0,,Chordata,Reptilia,Squamata,Elapidae,Aipysurus laevis,Aipysurus laevis,62.5,1,,POINT (114.16000366210938 -21.8700008392334)
ep_m0_off_transect_sighting_public_data.fid--5e32c652_1963b673aa0_55c4,912349650,Australia,Western Australia,Ningaloo,Central Indo-Pacific,Ningaloo Reef,NMP-C1,Monck Head,-23.18,113.76,2017-07-30,1.2,RLS,20,11:00:00,,,0,,Chordata,Reptilia,Testudines,Cheloniidae,Chelonia mydas,Chelonia mydas,75,1,,POINT (113.76000213623047 -23.18000030517578)
ep_m0_off_transect_sighting_public_data.fid--5e32c652_1963b673aa0_55c5,912349688,Australia,Western Australia,Ningaloo,Central Indo-Pacific,Ningaloo Reef,NMP8,Maud SZ external,-23.18,113.76,2017-07-31,3,RLS,15,12:00:00,,,0,,Chordata,Reptilia,Squamata,Elapidae,Laticauda colubrina,Laticauda colubrina,25,1,,POINT (113.76000213623047 -23.18000030517578)
ep_m0_off_transect_sighting_public_data.fid--5e32c652_1963b673aa0_55c6,912350142,Australia,New South Wales,Lord Howe and Norfolk Islands,Central Indo-Pacific,Lord Howe Island,LHI30,Malabar,-31.51,159.06,2018-02-13,11,RLS,30,11:00:00,,,0,,Chordata,Reptilia,Testudines,Cheloniidae,Chelonia mydas,Chelonia mydas,112.5,1,,POINT (159.05999755859375 -31.510000228881836)
ep_m0_off_transect_sighting_public_data.fid--5e32c652_1963b673aa0_55c7,912350150,Australia,New South Wales,Lord Howe and Norfolk Islands,Central Indo-Pacific,Lord Howe Island,LHI17,North Head inside,-31.52,159.04,2018-02-17,7,RLS,7,8:00:00,,,0,,Chordata,Reptilia,Testudines,Cheloniidae,Chelonia mydas,Chelonia mydas,100,1,,POINT (159.0399932861328 -31.520000457763672)
ep_m0_off_transect_sighting_public_data.fid--5e32c652_1963b673aa0_55c8,912350172,Australia,New South Wales,Lord Howe and Norfolk Islands,Central Indo-Pacific,Lord Howe Island,LHI26,Sylphs Hole inner,-31.52,159.05,2018-02-18,2,RLS,8,9:00:00,,,0,,Chordata,Reptilia,Testudines,Cheloniidae,Chelonia mydas,Chelonia mydas,50,1,,POINT (159.0500030517578 -31.520000457763672)
ep_m0_off_transect_sighting_public_data.fid--5e32c652_1963b673aa0_55c9,912350672,Australia,New South Wales,Manning-Hawkesbury,Temperate Australasia,Port Stephens,PS4,Governers Wharf (Fingal Island),-32.74,152.19,2014-06-22,8,RLS,10,9:00:00,,,0,,Chordata,Reptilia,Testudines,Cheloniidae,Caretta caretta,Caretta caretta,150,1,,POINT (152.19000244140625 -32.7400016784668)
ep_m0_off_transect_sighting_public_data.fid--5e32c652_1963b673aa0_55ca,912350740,Australia,New South Wales,Manning-Hawkesbury,Temperate Australasia,Sydney,SYD21,South Maroubra,-33.95,151.26,2018-03-17,8,RLS,8,9:00:00,,,0,,Chordata,Reptilia,Testudines,Cheloniidae,Chelonia mydas,Chelonia mydas,75,1,,POINT (151.25999450683594 -33.95000076293945)
ep_m0_off_transect_sighting_public_data.fid--5e32c652_1963b673aa0_55cb,912351166,Australia,New South Wales,Lord Howe and Norfolk Islands,Central Indo-Pacific,Lord Howe Island,LHI18,Keyhole North,-31.5,159.07,2006-02-20,13,RLS,,,,,0,,Chordata,Reptilia,Testudines,Cheloniidae,Chelonia mydas,Chelonia mydas,0,1,,POINT (159.07000732421875 -31.5)
ep_m0_off_transect_sighting_public_data.fid--5e32c652_1963b673aa0_55cc,912351297,Australia,New South Wales,Manning-Hawkesbury,Temperate Australasia,Port Stephens,PS17,Fly Point Nelson Bay,-32.71,152.15,2018-07-29,6.4,RLS,6,9:00:00,,,0,,Chordata,Reptilia,Testudines,Cheloniidae,Chelonia mydas,Chelonia mydas,40,1,,POINT (152.14999389648438 -32.709999084472656)
ep_m0_off_transect_sighting_public_data.fid--5e32c652_1963b673aa0_55cd,912351741,Australia,Queensland,Central and Southern Great Barrier Reef,Central Indo-Pacific,QLD inshore - South,GBR121,Linne Island,-20.68,149.18,2018-01-24,3.5,RLS,5,15:00:00,,,0,,Chordata,Reptilia,Testudines,Cheloniidae,Chelonia mydas,Chelonia mydas,62.5,1,,POINT (149.17999267578125 -20.68000030517578)
ep_m0_off_transect_sighting_public_data.fid--5e32c652_1963b673aa0_55ce,912351816,Australia,Queensland,Coral Sea,Central Indo-Pacific,Coral Sea - Central,CS234,Marion Centre Bommie Nth,-19.17,152.27,2018-02-01,10,RLS,40,11:00:00,,,0,,Chordata,Reptilia,Squamata,Elapidae,Aipysurus laevis,Aipysurus laevis,50,1,,POINT (152.27000427246094 -19.170000076293945)
ep_m0_off_transect_sighting_public_data.fid--5e32c652_1963b673aa0_55cf,912351816,Australia,Queensland,Coral Sea,Central Indo-Pacific,Coral Sea - Central,CS234,Marion Centre Bommie Nth,-19.17,152.27,2018-02-01,10,RLS,40,11:00:00,,,0,,Chordata,Reptilia,Squamata,Elapidae,Aipysurus laevis,Aipysurus laevis,87.5,3,,POINT (152.27000427246094 -19.170000076293945)
ep_m0_off_transect_sighting_public_data.fid--5e32c652_1963b673aa0_55d0,912351998,Australia,Western Australia,Exmouth to Broome,Central Indo-Pacific,Scott & Seringapatam Reefs,NWS29,Moray Bommie,-14.13,121.95,2018-12-22,4,RLS,12,8:00:00,,,0,,Chordata,Reptilia,Squamata,Elapidae,Emydocephalus annulatus,Emydocephalus annulatus,112.5,1,,POINT (121.94999694824219 -14.130000114440918)
ep_m0_off_transect_sighting_public_data.fid--5e32c652_1963b673aa0_55d1,912352006,Australia,Western Australia,Exmouth to Broome,Central Indo-Pacific,Scott & Seringapatam Reefs,NWS174,North Scott Lagoon,-13.93,121.9,2018-12-24,4,RLS,12,10:00:00,,,0,,Chordata,Reptilia,Squamata,Elapidae,Aipysurus duboisii,Aipysurus duboisii,87.5,1,,POINT (121.9000015258789 -13.930000305175781)
ep_m0_off_transect_sighting_public_data.fid--5e32c652_1963b673aa0_55d2,912352006,Australia,Western Australia,Exmouth to Broome,Central Indo-Pacific,Scott & Seringapatam Reefs,NWS174,North Scott Lagoon,-13.93,121.9,2018-12-24,4,RLS,12,10:00:00,,,0,,Chordata,Reptilia,Squamata,Elapidae,Emydocephalus annulatus,Emydocephalus annulatus,112.5,3,,POINT (121.9000015258789 -13.930000305175781)
ep_m0_off_transect_sighting_public_data.fid--5e32c652_1963b673aa0_55d3,912352027,Australia,Western Australia,Exmouth to Broome,Central Indo-Pacific,Ashmore/Cartier,NWS11,Hibernia Lagoon SW,-11.98,123.34,2019-01-02,3,RLS,25,14:00:00,,,0,,Chordata,Reptilia,Squamata,Elapidae,Emydocephalus annulatus,Emydocephalus annulatus,100,1,,POINT (123.33999633789062 -11.979999542236328)
ep_m0_off_transect_sighting_public_data.fid--5e32c652_1963b673aa0_55d4,912352028,Australia,Western Australia,Exmouth to Broome,Central Indo-Pacific,Ashmore/Cartier,NWS9,Spur and Groove Reef,-11.97,123.34,2019-01-02,7,RLS,30,12:00:00,,,0,,Chordata,Reptilia,Squamata,Elapidae,Aipysurus laevis,Aipysurus laevis,100,1,,POINT (123.33999633789062 -11.970000267028809)
ep_m0_off_transect_sighting_public_data.fid--5e32c652_1963b673aa0_55d5,912352042,Australia,Western Australia,Exmouth to Broome,Central Indo-Pacific,Ashmore/Cartier,NWS189,Cartier Garden,-12.53,123.57,2019-01-05,5,RLS,25,15:00:00,,,0,,Chordata,Reptilia,Squamata,Elapidae,Aipysurus laevis,Aipysurus laevis,112.5,1,,POINT (123.56999969482422 -12.529999732971191)
ep_m0_off_transect_sighting_public_data.fid--5e32c652_1963b673aa0_55d6,912352045,Australia,Western Australia,Exmouth to Broome,Central Indo-Pacific,Ashmore/Cartier,NWS192,Cartier Anchorage,-12.53,123.58,2019-01-06,12,RLS,25,9:00:00,,,0,,Chordata,Reptilia,Squamata,Elapidae,Aipysurus laevis,Aipysurus laevis,100,1,,POINT (123.58000183105469 -12.529999732971191)
ep_m0_off_transect_sighting_public_data.fid--5e32c652_1963b673aa0_55d7,912352090,Australia,Western Australia,Exmouth to Broome,Central Indo-Pacific,Ashmore/Cartier,NWS17,Turtle Patch,-12.24,122.99,2018-12-31,5,RLS,15,8:00:00,,,0,,Chordata,Reptilia,Testudines,Cheloniidae,Chelonia mydas,Chelonia mydas,75,1,,POINT (122.98999786376953 -12.239999771118164)
ep_m0_off_transect_sighting_public_data.fid--5e32c652_1963b673aa0_55d8,912352096,Australia,Western Australia,Exmouth to Broome,Central Indo-Pacific,Ashmore/Cartier,NWS5,Hibernia Lagoon SE,-11.98,123.38,2019-01-04,3,RLS,25,8:00:00,,,0,,Chordata,Reptilia,Squamata,Elapidae,Aipysurus laevis,Aipysurus laevis,75,1,,POINT (123.37999725341797 -11.979999542236328)
ep_m0_off_transect_sighting_public_data.fid--5e32c652_1963b673aa0_55d9,912352110,Australia,Western Australia,Exmouth to Broome,Central Indo-Pacific,Scott & Seringapatam Reefs,NWS40,Stern Trawler Reef,-14.08,121.74,2018-12-24,2,RLS,15,12:00:00,,,0,,Chordata,Reptilia,Testudines,Cheloniidae,Chelonia mydas,Chelonia mydas,75,1,,POINT (121.73999786376953 -14.079999923706055)
ep_m0_off_transect_sighting_public_data.fid--5e32c652_1963b673aa0_55da,912352110,Australia,Western Australia,Exmouth to Broome,Central Indo-Pacific,Scott & Seringapatam Reefs,NWS40,Stern Trawler Reef,-14.08,121.74,2018-12-24,2,RLS,15,12:00:00,,,0,,Chordata,Reptilia,Testudines,Cheloniidae,Chelonia mydas,Chelonia mydas,87.5,1,,POINT (121.73999786376953 -14.079999923706055)
ep_m0_off_transect_sighting_public_data.fid--5e32c652_1963b673aa0_55db,912352110,Australia,Western Australia,Exmouth to Broome,Central Indo-Pacific,Scott & Seringapatam Reefs,NWS40,Stern Trawler Reef,-14.08,121.74,2018-12-24,2,RLS,15,12:00:00,,,0,,Chordata,Reptilia,Testudines,Cheloniidae,Chelonia mydas,Chelonia mydas,112.5,1,,POINT (121.73999786376953 -14.079999923706055)
ep_m0_off_transect_sighting_public_data.fid--5e32c652_1963b673aa0_55dc,912352111,Australia,Western Australia,Exmouth to Broome,Central Indo-Pacific,Scott & Seringapatam Reefs,NWS175,North Reef bommies,-13.92,121.91,2018-12-25,10,RLS,18,11:00:00,,,0,,Chordata,Reptilia,Squamata,Elapidae,Aipysurus duboisii,Aipysurus duboisii,87.5,1,,POINT (121.91000366210938 -13.920000076293945)
ep_m0_off_transect_sighting_public_data.fid--5e32c652_1963b673aa0_55dd,912352112,Australia,Western Australia,Exmouth to Broome,Central Indo-Pacific,Scott & Seringapatam Reefs,NWS26,Seringapatam North,-13.62,121.99,2018-12-26,8,RLS,20,8:00:00,,,0,,Chordata,Reptilia,Squamata,Elapidae,Aipysurus laevis,Aipysurus laevis,75,1,,POINT (121.98999786376953 -13.619999885559082)
ep_m0_off_transect_sighting_public_data.fid--5e32c652_1963b673aa0_55de,912352130,Australia,Western Australia,Exmouth to Broome,Central Indo-Pacific,Ashmore/Cartier,NWS186,Cartier North,-12.53,123.58,2019-01-05,7,RLS,30,9:00:00,,,0,,Chordata,Reptilia,Squamata,Elapidae,Aipysurus laevis,Aipysurus laevis,87.5,1,,POINT (123.58000183105469 -12.529999732971191)
ep_m0_off_transect_sighting_public_data.fid--5e32c652_1963b673aa0_55df,912352132,Australia,Western Australia,Exmouth to Broome,Central Indo-Pacific,Ashmore/Cartier,NWS190,Nuclear Bommie,-12.52,123.57,2019-01-06,8,RLS,40,8:00:00,,,0,,Chordata,Reptilia,Squamata,Elapidae,Aipysurus laevis,Aipysurus laevis,75,1,,POINT (123.56999969482422 -12.520000457763672)
ep_m0_off_transect_sighting_public_data.fid--5e32c652_1963b673aa0_55e0,912352133,Australia,Western Australia,Exmouth to Broome,Central Indo-Pacific,Ashmore/Cartier,NWS191,Unexploded Bommie,-12.52,123.56,2019-01-06,10,RLS,40,10:00:00,-12.52,123.57,0,,Chordata,Reptilia,Squamata,Elapidae,Emydocephalus annulatus,Emydocephalus annulatus,75,1,,POINT (123.57 -12.52)
ep_m0_off_transect_sighting_public_data.fid--5e32c652_1963b673aa0_55e1,912352133,Australia,Western Australia,Exmouth to Broome,Central Indo-Pacific,Ashmore/Cartier,NWS191,Unexploded Bommie,-12.52,123.56,2019-01-06,10,RLS,40,10:00:00,-12.52,123.57,0,,Chordata,Reptilia,Testudines,Cheloniidae,Eretmochelys imbricata,Eretmochelys imbricata,150,1,,POINT (123.57 -12.52)
ep_m0_off_transect_sighting_public_data.fid--5e32c652_1963b673aa0_55e2,912352275,Australia,New South Wales,Tweed-Moreton,Temperate Australasia,Solitary Islands,SI2,Anemone Bay N Solitary Is,-29.92,153.39,2019-05-18,10,RLS,18,11:00:00,,,0,,Chordata,Reptilia,Testudines,Cheloniidae,Chelonia mydas,Chelonia mydas,62.5,1,,POINT (153.38999938964844 -29.920000076293945)
ep_m0_off_transect_sighting_public_data.fid--5e32c652_1963b673aa0_55e3,912352286,Australia,New South Wales,Tweed-Moreton,Temperate Australasia,Solitary Islands,SI1,Elbow Cave Mooring N Solitary Is,-29.93,153.39,2019-05-18,14.1,RLS,20,9:00:00,,,0,,Chordata,Reptilia,Testudines,Cheloniidae,Chelonia mydas,Chelonia mydas,100,1,,POINT (153.38999938964844 -29.93000030517578)
ep_m0_off_transect_sighting_public_data.fid--5e32c652_1963b673aa0_55e4,912352644,Australia,Western Australia,Exmouth to Broome,Central Indo-Pacific,Exmouth,NMP-BF3,Bundegi SZ South,-21.87,114.16,2019-08-19,5.8,RLS,5,13:00:00,,,0,,Chordata,Reptilia,Squamata,Elapidae,Aipysurus laevis,Aipysurus laevis,137.5,1,,POINT (114.16000366210938 -21.8700008392334)
ep_m0_off_transect_sighting_public_data.fid--5e32c652_1963b673aa0_55e5,912353382,Australia,New South Wales,Lord Howe and Norfolk Islands,Central Indo-Pacific,Lord Howe Island,LHI34,Neds Beach Deep,-31.51,159.07,2020-02-18,10,RLS,25,12:00:00,,,0,,Chordata,Reptilia,Testudines,Cheloniidae,Chelonia mydas,Chelonia mydas,87.5,1,,POINT (159.07000732421875 -31.510000228881836)
ep_m0_off_transect_sighting_public_data.fid--5e32c652_1963b673aa0_55e6,912353395,Australia,New South Wales,Lord Howe and Norfolk Islands,Central Indo-Pacific,Lord Howe Island,LHI48,Malabar West,-31.51,159.05,2020-02-18,10,RLS,25,16:00:00,,,0,,Chordata,Reptilia,Testudines,Cheloniidae,Chelonia mydas,Chelonia mydas,75,1,,POINT (159.0500030517578 -31.510000228881836)
ep_m0_off_transect_sighting_public_data.fid--5e32c652_1963b673aa0_55e7,912354045,Australia,New South Wales,Tweed-Moreton,Temperate Australasia,Solitary Islands,SI7,South Boulder Wall,-30.2,153.27,2020-10-29,9,RLS,25,8:00:00,,,0,,Chordata,Reptilia,Testudines,Cheloniidae,Caretta caretta,Caretta caretta,150,1,,POINT (153.27000427246094 -30.200000762939453)
ep_m0_off_transect_sighting_public_data.fid--5e32c652_1963b673aa0_55e8,912354069,Australia,Western Australia,Shark Bay,Temperate Australasia,Shark Bay,WA152,Broadhurst Bight,-25.55,113.48,2013-11-11,1.9,RLS,4,8:00:00,,,0,,Chordata,Reptilia,Squamata,Elapidae,Aipysurus laevis,Aipysurus laevis,125,1,,POINT (113.4800033569336 -25.549999237060547)
ep_m0_off_transect_sighting_public_data.fid--5e32c652_1963b673aa0_55e9,912354411,Australia,Queensland,Central and Southern Great Barrier Reef,Central Indo-Pacific,Keppels,GBR22,Barren Island2,-23.16,151.07,2020-12-14,7,RLS,11,14:00:00,-23.16,151.07,0,,Chordata,Reptilia,Testudines,Cheloniidae,Chelonia mydas,Chelonia mydas,50,1,,POINT (151.07 -23.16)
ep_m0_off_transect_sighting_public_data.fid--5e32c652_1963b673aa0_55ea,912354411,Australia,Queensland,Central and Southern Great Barrier Reef,Central Indo-Pacific,Keppels,GBR22,Barren Island2,-23.16,151.07,2020-12-14,7,RLS,11,14:00:00,-23.16,151.07,0,,Chordata,Reptilia,Testudines,Cheloniidae,Chelonia mydas,Chelonia mydas,62.5,1,,POINT (151.07 -23.16)
ep_m0_off_transect_sighting_public_data.fid--5e32c652_1963b673aa0_55eb,912354486,Australia,New South Wales,Manning-Hawkesbury,Temperate Australasia,Port Stephens,PS20,Halifax Park,-32.71,152.16,2021-02-27,14,RLS,8,9:00:00,,,0,,Chordata,Reptilia,Testudines,Cheloniidae,Chelonia mydas,Chelonia mydas,40,1,,POINT (152.16000366210938 -32.709999084472656)
ep_m0_off_transect_sighting_public_data.fid--5e32c652_1963b673aa0_55ec,912354503,Australia,Other Territories,Lord Howe and Norfolk Islands,Central Indo-Pacific,Norfolk Island,NI16,Jacky Jack,-29.13,167.95,2021-02-28,8,RLS,16,10:00:00,,,0,,Chordata,Reptilia,Testudines,Cheloniidae,Chelonia mydas,Chelonia mydas,62.5,1,,POINT (167.9499969482422 -29.1299991607666)
ep_m0_off_transect_sighting_public_data.fid--5e32c652_1963b673aa0_55ed,912354503,Australia,Other Territories,Lord Howe and Norfolk Islands,Central Indo-Pacific,Norfolk Island,NI16,Jacky Jack,-29.13,167.95,2021-02-28,8,RLS,16,10:00:00,,,0,,Chordata,Reptilia,Testudines,Cheloniidae,Chelonia mydas,Chelonia mydas,87.5,1,,POINT (167.9499969482422 -29.1299991607666)
ep_m0_off_transect_sighting_public_data.fid--5e32c652_1963b673aa0_55ee,912354702,Australia,Queensland,Central and Southern Great Barrier Reef,Central Indo-Pacific,GBR - Central,GBR205,Swimming Pool Milln Reef,-16.79,146.27,2021-05-22,5,RLS,8,13:00:00,,,0,,Chordata,Reptilia,Testudines,Cheloniidae,Eretmochelys imbricata,Eretmochelys imbricata,87.5,1,,POINT (146.27000427246094 -16.790000915527344)
ep_m0_off_transect_sighting_public_data.fid--5e32c652_1963b673aa0_55ef,923400185,Australia,Western Australia,Exmouth to Broome,Central Indo-Pacific,Exmouth,NMP-BF1,Bundegi,-21.84,114.18,2021-08-08,2.5,RLS,15,9:00:00,,,0,0,Chordata,Reptilia,Squamata,Elapidae,Aipysurus laevis,Aipysurus laevis,137.5,1,,POINT (114.18000030517578 -21.84000015258789)
ep_m0_off_transect_sighting_public_data.fid--5e32c652_1963b673aa0_55f0,923400500,Australia,Western Australia,Exmouth to Broome,Central Indo-Pacific,Ashmore/Cartier,NWS191,Unexploded Bommie,-12.52,123.56,2021-10-15,5,RLS,30,7:30:00,,,0,2,Chordata,Reptilia,Testudines,Cheloniidae,Chelonia mydas,Chelonia mydas,112.5,1,,POINT (123.55999755859375 -12.520000457763672)
ep_m0_off_transect_sighting_public_data.fid--5e32c652_1963b673aa0_55f1,923400546,Australia,Western Australia,Exmouth to Broome,Central Indo-Pacific,Ashmore/Cartier,NWS187,Cartier Reef Slope,-12.53,123.58,2021-10-15,4,RLS,40,13:30:00,,,0,2,Chordata,Reptilia,Testudines,Cheloniidae,Chelonia mydas,Chelonia mydas,112.5,1,,POINT (123.58000183105469 -12.529999732971191)
ep_m0_off_transect_sighting_public_data.fid--5e32c652_1963b673aa0_55f2,923400576,Australia,Western Australia,Exmouth to Broome,Central Indo-Pacific,Ashmore/Cartier,NWS203,Whatever Reef,-12.54,123.57,2021-10-15,6,RLS,40,16:00:00,,,0,1,Chordata,Reptilia,Testudines,Cheloniidae,Chelonia mydas,Chelonia mydas,62.5,1,,POINT (123.56999969482422 -12.539999961853027)
ep_m0_off_transect_sighting_public_data.fid--5e32c652_1963b673aa0_55f3,923400578,Australia,Western Australia,Exmouth to Broome,Central Indo-Pacific,Ashmore/Cartier,NWS203,Whatever Reef,-12.54,123.57,2021-10-15,7,RLS,40,16:00:00,,,0,2,Chordata,Reptilia,Testudines,Cheloniidae,Chelonia mydas,Chelonia mydas,50,1,,POINT (123.56999969482422 -12.539999961853027)
ep_m0_off_transect_sighting_public_data.fid--5e32c652_1963b673aa0_55f4,923400578,Australia,Western Australia,Exmouth to Broome,Central Indo-Pacific,Ashmore/Cartier,NWS203,Whatever Reef,-12.54,123.57,2021-10-15,7,RLS,40,16:00:00,,,0,2,Chordata,Reptilia,Testudines,Cheloniidae,Chelonia mydas,Chelonia mydas,112.5,1,,POINT (123.56999969482422 -12.539999961853027)
ep_m0_off_transect_sighting_public_data.fid--5e32c652_1963b673aa0_55f5,923400578,Australia,Western Australia,Exmouth to Broome,Central Indo-Pacific,Ashmore/Cartier,NWS203,Whatever Reef,-12.54,123.57,2021-10-15,7,RLS,40,16:00:00,,,0,1,Chordata,Reptilia,Testudines,Cheloniidae,Chelonia mydas,Chelonia mydas,112.5,1,,POINT (123.56999969482422 -12.539999961853027)
ep_m0_off_transect_sighting_public_data.fid--5e32c652_1963b673aa0_55f6,923400579,Australia,Western Australia,Exmouth to Broome,Central Indo-Pacific,Ashmore/Cartier,NWS192,Cartier Anchorage,-12.53,123.58,2021-10-15,7,RLS,30,10:00:00,,,0,2,Chordata,Reptilia,Squamata,Elapidae,Aipysurus laevis,Aipysurus laevis,87.5,1,,POINT (123.58000183105469 -12.529999732971191)
ep_m0_off_transect_sighting_public_data.fid--5e32c652_1963b673aa0_55f7,923400825,Australia,New South Wales,Lord Howe and Norfolk Islands,Central Indo-Pacific,Lord Howe Island,LHI30,Malabar,-31.51,159.06,2022-03-15,11,RLS,20,11:45:00,,,0,0,Chordata,Reptilia,Testudines,Cheloniidae,Chelonia mydas,Chelonia mydas,0,2,,POINT (159.05999755859375 -31.510000228881836)
ep_m0_off_transect_sighting_public_data.fid--5e32c652_1963b673aa0_55f8,923400836,Australia,New South Wales,Lord Howe and Norfolk Islands,Central Indo-Pacific,Lord Howe Island,LHI48,Malabar West,-31.51,159.05,2022-03-15,14,RLS,20,8:45:00,,,0,0,Chordata,Reptilia,Testudines,Cheloniidae,Chelonia mydas,Chelonia mydas,100,1,,POINT (159.0500030517578 -31.510000228881836)
ep_m0_off_transect_sighting_public_data.fid--5e32c652_1963b673aa0_55f9,923400857,Australia,New South Wales,Lord Howe and Norfolk Islands,Central Indo-Pacific,Lord Howe Island,LHI28,Old Gulch,-31.51,159.04,2022-03-15,6.1,RLS,14,10:00:00,,,0,0,Chordata,Reptilia,Testudines,Cheloniidae,Chelonia mydas,Chelonia mydas,25,1,,POINT (159.0399932861328 -31.510000228881836)
ep_m0_off_transect_sighting_public_data.fid--5e32c652_1963b673aa0_55fa,923400866,Australia,New South Wales,Lord Howe and Norfolk Islands,Central Indo-Pacific,Lord Howe Island,LHI7,Erscotts Passage South,-31.55,159.07,2022-03-17,6,RLS,20,11:00:00,,,0,0,Chordata,Reptilia,Testudines,Cheloniidae,Chelonia mydas,Chelonia mydas,75,1,,POINT (159.07000732421875 -31.549999237060547)
ep_m0_off_transect_sighting_public_data.fid--5e32c652_1963b673aa0_55fb,923400875,Australia,New South Wales,Lord Howe and Norfolk Islands,Central Indo-Pacific,Lord Howe Island,LHI24,Phillip Rock,-31.52,159.03,2022-03-24,6,RLS,25,8:20:00,,,0,0,Chordata,Reptilia,Testudines,Cheloniidae,Chelonia mydas,Chelonia mydas,75,1,,POINT (159.02999877929688 -31.520000457763672)
ep_m0_off_transect_sighting_public_data.fid--5e32c652_1963b673aa0_55fc,923400877,Australia,New South Wales,Lord Howe and Norfolk Islands,Central Indo-Pacific,Lord Howe Island,LHI34,Neds Beach Deep,-31.51,159.07,2022-03-19,11,RLS,20,9:00:00,,,0,0,Chordata,Reptilia,Testudines,Cheloniidae,Chelonia mydas,Chelonia mydas,35,1,,POINT (159.07000732421875 -31.510000228881836)
ep_m0_off_transect_sighting_public_data.fid--5e32c652_1963b673aa0_55fd,923400877,Australia,New South Wales,Lord Howe and Norfolk Islands,Central Indo-Pacific,Lord Howe Island,LHI34,Neds Beach Deep,-31.51,159.07,2022-03-19,11,RLS,20,9:00:00,,,0,0,Chordata,Reptilia,Testudines,Cheloniidae,Chelonia mydas,Chelonia mydas,50,1,,POINT (159.07000732421875 -31.510000228881836)
ep_m0_off_transect_sighting_public_data.fid--5e32c652_1963b673aa0_55fe,923401033,Australia,Other Territories,Lord Howe and Norfolk Islands,Central Indo-Pacific,Norfolk Island,NI9,Emily Bay,-29.06,167.96,2022-05-05,2,RLS,20,10:00:00,,,0,0,Chordata,Reptilia,Testudines,Cheloniidae,Chelonia mydas,Chelonia mydas,62.5,1,,POINT (167.9600067138672 -29.059999465942383)
ep_m0_off_transect_sighting_public_data.fid--5e32c652_1963b673aa0_55ff,923401429,Australia,Queensland,Coral Sea,Central Indo-Pacific,Coral Sea - South,CS239,North Kenn Maze,-21.13,155.74,2022-12-09,5,RLS,31,7:30:00,,,0,1,Chordata,Reptilia,Testudines,Cheloniidae,Chelonia mydas,Chelonia mydas,100,1,,POINT (155.74000549316406 -21.1299991607666)
ep_m0_off_transect_sighting_public_data.fid--5e32c652_1963b673aa0_5600,923401502,Australia,Queensland,Coral Sea,Central Indo-Pacific,Coral Sea - Central,CS108,South Dimond Milky,-17.66,150.83,2022-11-26,6.5,RLS,23,9:00:00,,,0,2,Chordata,Reptilia,Testudines,Cheloniidae,Chelonia mydas,Chelonia mydas,112.5,1,,POINT (150.8300018310547 -17.65999984741211)
ep_m0_off_transect_sighting_public_data.fid--5e32c652_1963b673aa0_5601,923401508,Australia,Queensland,Coral Sea,Central Indo-Pacific,Coral Sea - South,CS29,Shag Rock,-22.17,155.48,2022-12-11,12,RLS,31,14:00:00,,,0,1,Chordata,Reptilia,Testudines,Cheloniidae,Eretmochelys imbricata,Eretmochelys imbricata,87.5,1,,POINT (155.47999572753906 -22.170000076293945)
ep_m0_off_transect_sighting_public_data.fid--5e32c652_1963b673aa0_5602,923401548,Australia,Queensland,Coral Sea,Central Indo-Pacific,Coral Sea - Central,CS170,Lihou Turtle Islet SW,-17.12,152,2022-11-30,5,RLS,38,8:15:00,,,0,2,Chordata,Reptilia,Testudines,Cheloniidae,Chelonia mydas,Chelonia mydas,87.5,1,,POINT (152 -17.1200008392334)
ep_m0_off_transect_sighting_public_data.fid--5e32c652_1963b673aa0_5603,923401736,Australia,Queensland,Central and Southern Great Barrier Reef,Central Indo-Pacific,Capricorn-Bunker,GBR298,OTI10 - Bendy reef,-23.5,152.08,2023-05-08,2,RLS,10,10:30:00,,,0,0,Chordata,Reptilia,Testudines,Cheloniidae,Eretmochelys imbricata,Eretmochelys imbricata,40,1,,POINT (152.0800018310547 -23.5)
ep_m0_off_transect_sighting_public_data.fid--5e32c652_1963b673aa0_5604,923401759,Australia,Queensland,Central and Southern Great Barrier Reef,Central Indo-Pacific,Capricorn-Bunker,GBR290,Heron Bombie,-23.44,151.9,2022-06-05,8,RLS,15,12:00:00,,,0,1,Chordata,Reptilia,Testudines,Cheloniidae,Chelonia mydas,Chelonia mydas,75,1,,POINT (151.89999389648438 -23.440000534057617)
ep_m0_off_transect_sighting_public_data.fid--5e32c652_1963b673aa0_5605,923401763,Australia,Queensland,Central and Southern Great Barrier Reef,Central Indo-Pacific,Capricorn-Bunker,GBR285,Tenements 2,-23.43,151.93,2022-06-01,6,RLS,15,14:27:00,,,0,2,Chordata,Reptilia,Testudines,Cheloniidae,Chelonia mydas,Chelonia mydas,87.5,1,,POINT (151.92999267578125 -23.43000030517578)
ep_m0_off_transect_sighting_public_data.fid--5e32c652_1963b673aa0_5606,923401774,Australia,Queensland,Central and Southern Great Barrier Reef,Central Indo-Pacific,Capricorn-Bunker,GBR290,Heron Bombie,-23.44,151.9,2022-05-30,6,RLS,7,9:15:00,,,0,2,Chordata,Reptilia,Testudines,Cheloniidae,Chelonia mydas,Chelonia mydas,100,3,,POINT (151.89999389648438 -23.440000534057617)
ep_m0_off_transect_sighting_public_data.fid--5e32c652_1963b673aa0_5607,923402172,Australia,Queensland,Tweed-Moreton,Temperate Australasia,Moreton,MBMP1,Flat Rock,-27.39,153.55,2023-06-11,9,RLS,10,7:40:00,,,0,1,Chordata,Reptilia,Testudines,Cheloniidae,Chelonia mydas,Chelonia mydas,125,1,,POINT (153.5500030517578 -27.389999389648438)
ep_m0_off_transect_sighting_public_data.fid--5e32c652_1963b673aa0_5608,923402866,Australia,New South Wales,Lord Howe and Norfolk Islands,Central Indo-Pacific,Lord Howe Island,LHI18,Keyhole North,-31.5,159.07,2024-03-28,7,RLS,21,9:15:00,,,0,0,Chordata,Reptilia,Testudines,Cheloniidae,Chelonia mydas,Chelonia mydas,75,1,,POINT (159.07000732421875 -31.5)
ep_m0_off_transect_sighting_public_data.fid--5e32c652_1963b673aa0_5609,923402890,Australia,New South Wales,Lord Howe and Norfolk Islands,Central Indo-Pacific,Lord Howe Island,LHI17,North Head inside,-31.52,159.04,2024-03-20,7,RLS,20,8:30:00,,,0,0,Chordata,Reptilia,Testudines,Cheloniidae,Chelonia mydas,Chelonia mydas,62.5,1,,POINT (159.0399932861328 -31.520000457763672)
ep_m0_off_transect_sighting_public_data.fid--5e32c652_1963b673aa0_560a,923402920,Australia,Queensland,Tweed-Moreton,Temperate Australasia,Moreton,MBMP11,Shark Gutters,-27.39,153.55,2024-06-16,12,RLS,15,7:30:00,,,0,1,Chordata,Reptilia,Testudines,Cheloniidae,Chelonia mydas,Chelonia mydas,87.5,1,,POINT (153.5500030517578 -27.389999389648438)
ep_m0_off_transect_sighting_public_data.fid--5e32c652_1963b673aa0_560b,923402924,Australia,Queensland,Tweed-Moreton,Temperate Australasia,Moreton,MBMP2,Shag Rock,-27.41,153.53,2024-06-15,6,RLS,15,10:00:00,,,0,1,Chordata,Reptilia,Testudines,Cheloniidae,Chelonia mydas,Chelonia mydas,125,1,,POINT (153.52999877929688 -27.40999984741211)
ep_m0_off_transect_sighting_public_data.fid--5e32c652_1963b673aa0_560c,923402932,Australia,Queensland,Tweed-Moreton,Temperate Australasia,Moreton,MBMP1,Flat Rock,-27.39,153.55,2024-06-15,10,RLS,17,8:00:00,,,0,1,Chordata,Reptilia,Testudines,Cheloniidae,Chelonia mydas,Chelonia mydas,125,1,,POINT (153.5500030517578 -27.389999389648438)
ep_m0_off_transect_sighting_public_data.fid--5e32c652_1963b673aa0_560d,923402932,Australia,Queensland,Tweed-Moreton,Temperate Australasia,Moreton,MBMP1,Flat Rock,-27.39,153.55,2024-06-15,10,RLS,17,8:00:00,,,0,1,Chordata,Reptilia,Testudines,Cheloniidae,Eretmochelys imbricata,Eretmochelys imbricata,87.5,1,,POINT (153.5500030517578 -27.389999389648438)
ep_m0_off_transect_sighting_public_data.fid--5e32c652_1963b673aa0_560e,923402933,Australia,Queensland,Tweed-Moreton,Temperate Australasia,Moreton,MBMP1,Flat Rock,-27.39,153.55,2024-06-15,11,RLS,15,8:00:00,,,0,2,Chordata,Reptilia,Testudines,Cheloniidae,Eretmochelys imbricata,Eretmochelys imbricata,87.5,1,,POINT (153.5500030517578 -27.389999389648438)
ep_m0_off_transect_sighting_public_data.fid--5e32c652_1963b673aa0_560f,923403167,Australia,New South Wales,Manning-Hawkesbury,Temperate Australasia,Sydney,SYD68,La Perouse Kelp Bed,-33.99,151.23,2024-02-17,3,RLS,5,8:15:00,,,0,0,Chordata,Reptilia,Testudines,Cheloniidae,Chelonia mydas,Chelonia mydas,87.5,1,,POINT (151.22999572753906 -33.9900016784668)
ep_m0_off_transect_sighting_public_data.fid--5e32c652_1963b673aa0_5610,923403241,Australia,Queensland,Central and Southern Great Barrier Reef,Central Indo-Pacific,Coral Sea - Central,GBR304,Milln Back Reef,-16.79,146.27,2023-07-12,5,RLS,13,15:30:00,,,0,1,Chordata,Reptilia,Testudines,Cheloniidae,Eretmochelys imbricata,Eretmochelys imbricata,87.5,1,,POINT (146.27000427246094 -16.790000915527344)
ep_m0_off_transect_sighting_public_data.fid--5e32c652_1963b673aa0_5611,923403305,Australia,Western Australia,Shark Bay,Temperate Australasia,Shark Bay,WA190,Cleft Rock Inner,-24.81,113.17,2023-11-03,4,RLS,5,9:30:00,,,0,0,Chordata,Reptilia,Squamata,Elapidae,Emydocephalus annulatus,Emydocephalus annulatus,100,1,,POINT (113.16999816894531 -24.809999465942383)
ep_m0_off_transect_sighting_public_data.fid--5e32c652_1963b673aa0_5612,923403353,Australia,Queensland,Torres Strait Northern Great Barrier Reef,Central Indo-Pacific,Coral Sea - Far North,CS198,Ashmore NE Lagoon,-10.23,144.59,2023-08-14,6,RLS,20,13:30:00,,,0,1,Chordata,Reptilia,Squamata,Elapidae,Aipysurus laevis,Aipysurus laevis,87.5,1,,POINT (144.58999633789062 -10.229999542236328)
ep_m0_off_transect_sighting_public_data.fid--5e32c652_1963b673aa0_5613,923403363,Australia,Queensland,Torres Strait Northern Great Barrier Reef,Central Indo-Pacific,Coral Sea - Far North,CS218,Ctenochaetus Reef,-10.19,144.41,2023-08-19,12,RLS,30,9:45:00,,,0,1,Chordata,Reptilia,Testudines,Cheloniidae,Eretmochelys imbricata,Eretmochelys imbricata,87.5,1,,POINT (144.41000366210938 -10.1899995803833)
ep_m0_off_transect_sighting_public_data.fid--5e32c652_1963b673aa0_5614,923403387,Australia,Queensland,Torres Strait Northern Great Barrier Reef,Central Indo-Pacific,GBR - North,GBR231,Cobia Hole,-14.65,145.45,2023-07-20,15,RLS,12,9:15:00,,,0,2,Chordata,Reptilia,Testudines,Cheloniidae,Chelonia mydas,Chelonia mydas,100,1,,POINT (145.4499969482422 -14.649999618530273)
ep_m0_off_transect_sighting_public_data.fid--5e32c652_1963b673aa0_5615,923403473,Australia,New South Wales,Manning-Hawkesbury,Temperate Australasia,Port Stephens,PS17,Fly Point Nelson Bay,-32.71,152.15,2024-05-25,6,RLS,6,9:00:00,,,0,2,Chordata,Reptilia,Testudines,Cheloniidae,Chelonia mydas,Chelonia mydas,62.5,1,,POINT (152.14999389648438 -32.709999084472656)
ep_m0_off_transect_sighting_public_data.fid--5e32c652_1963b673aa0_5616,923403697,Australia,New South Wales,Cape Howe,Temperate Australasia,Batemans,BMP32,Whale Bay,-35.83,150.22,2023-11-11,7,RLS,10,11:00:00,,,0,2,Chordata,Reptilia,Testudines,Cheloniidae,Eretmochelys imbricata,Eretmochelys imbricata,100,1,,POINT (150.22000122070312 -35.83000183105469)
ep_m0_off_transect_sighting_public_data.fid--5e32c652_1963b673aa0_5617,923403763,Australia,Western Australia,Exmouth to Broome,Central Indo-Pacific,Ashmore/Cartier,NWS24,Reel Lost Bommie,-12.24,122.99,2023-09-16,8,RLS,8,8:00:00,,,0,1,Chordata,Reptilia,Testudines,Cheloniidae,Chelonia mydas,Chelonia mydas,62.5,1,,POINT (122.98999786376953 -12.239999771118164)
ep_m0_off_transect_sighting_public_data.fid--5e32c652_1963b673aa0_5618,923403763,Australia,Western Australia,Exmouth to Broome,Central Indo-Pacific,Ashmore/Cartier,NWS24,Reel Lost Bommie,-12.24,122.99,2023-09-16,8,RLS,8,8:00:00,,,0,1,Chordata,Reptilia,Testudines,Cheloniidae,Chelonia mydas,Chelonia mydas,125,1,,POINT (122.98999786376953 -12.239999771118164)
ep_m0_off_transect_sighting_public_data.fid--5e32c652_1963b673aa0_5619,923403776,Australia,Western Australia,Exmouth to Broome,Central Indo-Pacific,Ashmore/Cartier,NWS193,Cartier Island,-12.52,123.56,2023-09-14,8,RLS,20,11:00:00,,,0,2,Chordata,Reptilia,Squamata,Elapidae,Aipysurus laevis,Aipysurus laevis,100,1,,POINT (123.55999755859375 -12.520000457763672)
ep_m0_off_transect_sighting_public_data.fid--5e32c652_1963b673aa0_561a,923403820,Australia,Western Australia,Exmouth to Broome,Central Indo-Pacific,Scott & Seringapatam Reefs,NWS176,Shackle Reef,-13.62,122.01,2023-09-18,6,RLS,24,14:30:00,,,0,1,Chordata,Reptilia,Squamata,Elapidae,Aipysurus duboisii,Aipysurus duboisii,87.5,1,,POINT (122.01000213623047 -13.619999885559082)
ep_m0_off_transect_sighting_public_data.fid--5e32c652_1963b673aa0_561b,923403826,Australia,Western Australia,Exmouth to Broome,Central Indo-Pacific,Scott & Seringapatam Reefs,NWS172,Scott Outside anchorage,-14.07,121.97,2023-09-20,5,RLS,25,11:00:00,,,0,1,Chordata,Reptilia,Squamata,Elapidae,Aipysurus duboisii,Aipysurus duboisii,50,1,,POINT (121.97000122070312 -14.069999694824219)
ep_m0_off_transect_sighting_public_data.fid--5e32c652_1963b673aa0_561c,923403838,Australia,Western Australia,Exmouth to Broome,Central Indo-Pacific,Scott & Seringapatam Reefs,NWS40,Stern Trawler Reef,-14.08,121.74,2023-09-21,1.5,RLS,12,14:00:00,,,0,1,Chordata,Reptilia,Testudines,Cheloniidae,Chelonia mydas,Chelonia mydas,50,1,,POINT (121.73999786376953 -14.079999923706055)
ep_m0_off_transect_sighting_public_data.fid--5e32c652_1963b673aa0_561d,923403838,Australia,Western Australia,Exmouth to Broome,Central Indo-Pacific,Scott & Seringapatam Reefs,NWS40,Stern Trawler Reef,-14.08,121.74,2023-09-21,1.5,RLS,12,14:00:00,,,0,1,Chordata,Reptilia,Testudines,Cheloniidae,Chelonia mydas,Chelonia mydas,75,1,,POINT (121.73999786376953 -14.079999923706055)
ep_m0_off_transect_sighting_public_data.fid--5e32c652_1963b673aa0_561e,923403871,Australia,Western Australia,Exmouth to Broome,Central Indo-Pacific,Scott & Seringapatam Reefs,NWS28,Consolation Bommie,-14.13,121.94,2023-09-21,7,RLS,10,8:00:00,,,0,0,Chordata,Reptilia,Squamata,Elapidae,Aipysurus duboisii,Aipysurus duboisii,62.5,1,,POINT (121.94000244140625 -14.130000114440918)
ep_m0_off_transect_sighting_public_data.fid--5e32c652_1963b673aa0_561f,923403899,Australia,Western Australia,Exmouth to Broome,Central Indo-Pacific,Scott & Seringapatam Reefs,NWS28,Consolation Bommie,-14.13,121.94,2023-09-21,4.5,RLS,10,8:00:00,,,0,0,Chordata,Reptilia,Squamata,Elapidae,Aipysurus laevis,Aipysurus laevis,100,1,,POINT (121.94000244140625 -14.130000114440918)
ep_m0_off_transect_sighting_public_data.fid--5e32c652_1963b673aa0_5620,923403899,Australia,Western Australia,Exmouth to Broome,Central Indo-Pacific,Scott & Seringapatam Reefs,NWS28,Consolation Bommie,-14.13,121.94,2023-09-21,4.5,RLS,10,8:00:00,,,0,0,Chordata,Reptilia,Squamata,Elapidae,Aipysurus laevis,Aipysurus laevis,112.5,1,,POINT (121.94000244140625 -14.130000114440918)
ep_m0_off_transect_sighting_public_data.fid--5e32c652_1963b673aa0_5621,923404366,Australia,Queensland,Central and Southern Great Barrier Reef,Central Indo-Pacific,Capricorn-Bunker,GBR16,Tryon Island south,-23.25,151.77,2024-12-05,7,RLS,15,14:30:00,,,0,0,Chordata,Reptilia,Testudines,Cheloniidae,Caretta caretta,Caretta caretta,150,1,,POINT (151.77000427246094 -23.25)
ep_m0_off_transect_sighting_public_data.fid--5e32c652_1963b673aa0_5622,923404713,Australia,Other Territories,Lord Howe and Norfolk Islands,Central Indo-Pacific,Norfolk Island,NI9,Emily Bay,-29.06,167.96,2025-01-28,2,RLS,18,13:30:00,,,0,0,Chordata,Reptilia,Testudines,Cheloniidae,Chelonia mydas,Chelonia mydas,100,1,,POINT (167.9600067138672 -29.059999465942383)
ep_m0_off_transect_sighting_public_data.fid--5e32c652_1963b673aa0_5623,923404737,Australia,Other Territories,Lord Howe and Norfolk Islands,Central Indo-Pacific,Norfolk Island,NI1,The Crack Nepean Island,-29.07,167.96,2025-01-30,14,RLS,38,10:30:00,,,0,2,Chordata,Reptilia,Testudines,Cheloniidae,Chelonia mydas,Chelonia mydas,87.5,1,,POINT (167.9600067138672 -29.06999969482422)